latitude,longitude,altitude(m),ultrasonicHeight(m),speed(mps),distance(m),max_altitude(m),max_ascent(m),max_speed(mps),max_distance(m),time(millisecond),datetime(utc),datetime(local),satellites,pressure(Pa),temperature(F),voltage(v),home_latitude,home_longitude,velocityX(mps),velocityY(mps),velocityZ(mps),pitch(deg),roll(deg),yaw(deg),powerlevel,isflying,istakingphoto,remainPowerPercent,remainLifePercent,currentCurrent,currentElectricity,currentVoltage,batteryTemperature,dischargeCount,flightmode,isMotorsOn,isTakingVideo,Rc_elevator,Rc_aileron,Rc_throttle,Rc_rudder,Rc_gyro,timestamp,Battery_Cell1,Battery_Cell2,Battery_Cell3,Battery_Cell4,Battery_Cell5,Battery_Cell6,Dronetype,AppVersion,Planename,FlyControllerSerialNumber,RemoteSerialNumber,BatterySerialNumber,CENTER_BATTERY.productDate,CENTER_BATTERY.serialNo,CENTER_BATTERY.fullCapacity,CENTER_BATTERY.productDateRaw,pitchRaw,rollRaw,yawRaw,gimbalPitchRaw,gimbalRollRaw,gimbalYawRaw,flyState,altitudeRaw,speedRaw,distanceRaw,velocityXRaw,velocityYRaw,velocityZRaw,data_reuse,App_Tip,App_Warning,downlinkSignalQuality,uplinkSignalQuality,transmissionChannel,rcModeSwitch,rcHome,rcPause,rcTransform,rcJoystickMode,appMode,FlyControllerSerialNumber_legacy,RemoteSerialNumber_legacy,BatterySerialNumber_legacy,Battery2SerialNumber,frontAvoidDist,backAvoidDist,isBrakingToAvoid
51.519485,5.858141,0.30,0.40,0.40,0.09,0.30,0.30,0.40,0.09,0,2020-09-29 13:43:48.525,2020-09-29 15:43:48.525,18,0,0,16.904,51.519486,5.858140,0.00,0.00,-0.40,0.00,1.10,112.70,0,1,0,91,100,-4239,3192,16904,3031.50,11,TakeOff,1,0,0,0,0,0,0,1601387028524,4278,4271,4263,4267,0,0,27,Litchi_iOS_2.8.0,djiuser_97p9AXasssb6-Mavic2,163CG9WR0A2UQL,1DUCG9WR024G86,0P2AG9H5340597,,0,3515,0,-0.00,11.00,1127.00,1.00,0.00,1137.00,11,3.00,4.00,0.88,0.00,0.00,-4.00,0,,,100,100,0,2,0,0,0,1,0,(null),(null),(null),(null),0.0,0.0,0
51.519485,5.858142,0.40,0.40,0.40,0.10,0.40,0.40,0.40,0.10,98,2020-09-29 13:43:48.622,2020-09-29 15:43:48.623,18,0,0,16.904,51.519486,5.858140,0.00,0.00,-0.40,0.00,1.10,112.60,0,1,0,91,100,-4239,3192,16904,3031.50,11,TakeOff,1,0,0,0,0,0,0,1601387028622,4278,4271,4263,4267,0,0,27,,,,,,,0,0,0,-0.00,11.00,1126.00,1.00,0.00,1137.00,11,4.00,4.00,1.04,0.00,0.00,-4.00,0,,,100,100,0,2,0,0,0,1,0,,,,,0.0,0.0,0
51.519485,5.858141,0.40,0.40,0.40,0.10,0.40,0.40,0.40,0.10,198,2020-09-29 13:43:48.723,2020-09-29 15:43:48.723,18,0,0,16.904,51.519486,5.858140,0.00,0.00,-0.40,-0.20,1.00,112.70,0,1,0,91,100,-4239,3192,16904,3031.50,11,TakeOff,1,0,0,0,0,0,0,1601387028722,4278,4271,4263,4267,0,0,27,,,,,,,0,0,0,2.00,10.00,1127.00,1.00,0.00,1137.00,11,4.00,4.00,1.05,0.00,0.00,-4.00,0,,,100,100,0,2,0,0,0,1,0,,,,,0.0,0.0,0
51.519485,5.858142,0.50,0.50,0.50,0.10,0.50,0.50,0.50,0.10,299,2020-09-29 13:43:48.823,2020-09-29 15:43:48.823,18,0,0,16.904,51.519486,5.858140,0.00,0.00,-0.50,-0.30,0.70,112.70,0,1,0,91,100,-4239,3192,16904,3031.50,11,TakeOff,1,0,0,0,0,0,0,1601387028823,4278,4271,4263,4267,0,0,27,,,,,,,0,0,0,3.00,7.00,1127.00,1.00,0.00,1137.00,11,5.00,5.00,0.97,0.00,0.00,-5.00,0,,,100,100,0,2,0,0,0,1,0,,,,,0.0,0.0,0
51.519485,5.858141,0.50,0.60,0.50,0.10,0.50,0.50,0.50,0.10,414,2020-09-29 13:43:48.939,2020-09-29 15:43:48.939,18,0,0,16.904,51.519486,5.858140,0.00,0.00,-0.50,-0.50,0.50,112.70,0,1,0,91,100,-4239,3192,16904,3031.50,11,TakeOff,1,0,0,0,0,0,0,1601387028938,4278,4271,4263,4267,0,0,27,,,,,,,0,0,0,5.00,5.00,1127.00,1.00,0.00,1137.00,11,5.00,5.00,0.98,0.00,0.00,-5.00,0,,,100,100,0,2,0,0,0,1,0,,,,,0.0,0.0,0
51.519485,5.858142,0.60,0.60,0.50,0.11,0.60,0.60,0.50,0.11,498,2020-09-29 13:43:49.022,2020-09-29 15:43:49.022,18,0,0,16.904,51.519486,5.858140,0.00,0.00,-0.50,-0.40,0.20,112.60,0,1,0,91,100,-4239,3192,16904,3031.50,11,TakeOff,1,0,0,0,0,0,0,1601387029022,4278,4271,4263,4267,0,0,27,,,,,,,0,0,0,4.00,2.00,1126.00,1.00,0.00,1137.00,11,6.00,5.00,1.06,0.00,0.00,-5.00,0,,,100,100,0,2,0,0,0,1,0,,,,,0.0,0.0,0
51.519485,5.858142,0.60,0.70,0.50,0.11,0.60,0.60,0.50,0.11,647,2020-09-29 13:43:49.172,2020-09-29 15:43:49.172,18,0,0,16.904,51.519486,5.858140,0.00,0.00,-0.50,-0.30,0.50,112.60,0,1,0,91,100,-4239,3192,16904,3031.50,11,TakeOff,1,0,0,0,0,0,0,1601387029171,4278,4271,4263,4267,0,0,27,,,,,,,0,0,0,3.00,5.00,1126.00,1.00,0.00,1137.00,11,6.00,5.00,1.07,0.00,0.00,-5.00,0,,,100,100,0,2,0,0,0,1,0,,,,,0.0,0.0,0
51.519485,5.858142,0.70,0.70,0.50,0.09,0.70,0.70,0.50,0.11,698,2020-09-29 13:43:49.222,2020-09-29 15:43:49.222,18,0,0,16.904,51.519486,5.858140,0.00,0.00,-0.50,-0.40,0.60,112.50,0,1,0,91,100,-4239,3192,16904,3031.50,11,TakeOff,1,0,0,0,0,0,0,1601387029222,4278,4271,4263,4267,0,0,27,,,,,,,0,0,0,4.00,6.00,1125.00,1.00,0.00,1137.00,11,7.00,5.00,0.85,0.00,0.00,-5.00,0,,,100,100,0,2,0,0,0,1,0,,,,,0.0,0.0,0
51.519485,5.858142,0.70,0.80,0.50,0.09,0.70,0.70,0.50,0.11,801,2020-09-29 13:43:49.325,2020-09-29 15:43:49.325,18,0,0,16.904,51.519486,5.858140,0.00,0.00,-0.50,-0.30,0.70,112.50,0,1,0,91,100,-4239,3192,16904,3031.50,11,TakeOff,1,0,0,0,0,0,0,1601387029325,4278,4271,4263,4267,0,0,27,,,,,,,0,0,0,3.00,7.00,1125.00,1.00,0.00,1137.00,11,7.00,5.00,0.85,0.00,0.00,-5.00,0,,,100,100,0,2,0,0,0,1,0,,,,,0.0,0.0,0
51.519486,5.858142,0.80,0.80,0.50,0.09,0.80,0.80,0.50,0.11,898,2020-09-29 13:43:49.422,2020-09-29 15:43:49.422,18,0,0,16.904,51.519486,5.858140,0.00,0.00,-0.50,-0.20,0.90,112.50,0,1,0,91,100,-4239,3192,16904,3031.50,11,TakeOff,1,0,0,0,0,0,0,1601387029422,4278,4271,4263,4267,0,0,27,,,,,,,0,0,0,2.00,9.00,1125.00,1.00,0.00,1137.00,11,8.00,5.00,0.88,0.00,0.00,-5.00,0,,,100,100,0,2,0,0,0,1,0,,,,,0.0,0.0,0
51.519486,5.858142,0.80,0.90,0.50,0.09,0.80,0.80,0.50,0.11,997,2020-09-29 13:43:49.521,2020-09-29 15:43:49.521,18,0,0,16.904,51.519486,5.858140,0.00,0.00,-0.50,-0.10,0.90,112.60,0,1,0,91,100,-4239,3192,16904,3031.50,11,TakeOff,1,0,0,0,0,0,0,1601387029521,4278,4271,4263,4267,0,0,27,,,,,,,0,0,0,1.00,9.00,1126.00,1.00,0.00,1137.00,11,8.00,5.00,0.91,0.00,0.00,-5.00,0,,,100,100,0,2,0,0,0,1,0,,,,,0.0,0.0,0
51.519486,5.858142,0.90,0.90,0.50,0.10,0.90,0.90,0.50,0.11,1146,2020-09-29 13:43:49.671,2020-09-29 15:43:49.671,18,0,0,16.904,51.519486,5.858140,0.00,0.00,-0.50,-0.10,1.10,112.60,0,1,0,91,100,-4239,3192,16904,3031.50,11,TakeOff,1,0,0,0,0,0,0,1601387029670,4278,4271,4263,4267,0,0,27,,,,,,,0,0,0,1.00,11.00,1126.00,1.00,0.00,1137.00,11,9.00,5.00,0.96,0.00,0.00,-5.00,0,,,100,100,0,2,0,0,0,1,0,,,,,0.0,0.0,0
51.519486,5.858142,0.90,1.00,0.40,0.10,0.90,0.90,0.50,0.11,1196,2020-09-29 13:43:49.721,2020-09-29 15:43:49.721,18,0,0,16.904,51.519486,5.858140,0.00,0.00,-0.40,-0.10,1.40,112.70,0,1,0,91,100,-4239,3192,16904,3031.50,11,TakeOff,1,0,0,0,0,0,0,1601387029720,4278,4271,4263,4267,0,0,27,,,,,,,0,0,0,1.00,14.00,1127.00,1.00,0.00,1137.00,11,9.00,4.00,1.01,0.00,0.00,-4.00,0,,,100,100,0,2,0,0,0,1,0,,,,,0.0,0.0,0
51.519486,5.858142,0.90,1.00,0.40,0.11,0.90,0.90,0.50,0.11,1299,2020-09-29 13:43:49.823,2020-09-29 15:43:49.823,18,0,0,16.904,51.519486,5.858140,0.00,0.00,-0.40,-0.40,1.40,112.80,0,1,0,91,100,-4239,3192,16904,3031.50,11,TakeOff,1,0,0,0,0,0,0,1601387029823,4278,4271,4263,4267,0,0,27,,,,,,,0,0,0,4.00,14.00,1128.00,1.00,0.00,1137.00,11,9.00,4.00,1.12,0.00,0.00,-4.00,0,,,100,100,0,2,0,0,0,1,0,,,,,0.0,0.0,0
51.519486,5.858142,1.00,1.10,0.40,0.12,1.00,1.00,0.50,0.12,1396,2020-09-29 13:43:49.920,2020-09-29 15:43:49.920,18,0,0,16.904,51.519486,5.858140,0.00,0.00,-0.40,0.00,1.40,112.70,0,1,0,91,100,-4239,3192,16904,3031.50,11,GPS,1,0,0,0,0,0,0,1601387029920,4278,4271,4263,4267,0,0,27,,,,,,,0,0,0,-0.00,14.00,1127.00,1.00,0.00,1137.00,6,10.00,4.00,1.18,0.00,0.00,-4.00,0,,,100,100,0,2,0,0,0,1,0,,,,,0.0,0.0,0
51.519486,5.858142,1.00,1.10,0.40,0.12,1.00,1.00,0.50,0.12,1494,2020-09-29 13:43:50.018,2020-09-29 15:43:50.019,18,0,0,16.904,51.519486,5.858140,0.00,0.00,-0.40,0.10,0.60,112.70,0,1,0,91,100,-4239,3192,16904,3031.50,11,WP,1,0,0,0,0,0,0,1601387030018,4278,4271,4263,4267,0,0,27,,,,,,,0,0,0,-1.00,6.00,1127.00,1.00,0.00,1137.00,14,10.00,4.00,1.18,0.00,0.00,-4.00,0,,,100,100,0,2,0,0,0,1,0,,,,,0.0,0.0,0
51.519486,5.858142,1.10,1.20,0.40,0.12,1.10,1.10,0.50,0.12,1613,2020-09-29 13:43:50.138,2020-09-29 15:43:50.138,18,0,0,16.586,51.519486,5.858140,0.00,0.00,-0.40,-0.10,0.50,112.60,0,1,0,91,100,-7248,3189,16586,3031.50,11,WP,1,0,0,0,0,0,0,1601387030137,4278,4271,4263,4267,0,0,27,,,,,,,0,0,0,1.00,5.00,1126.00,1.00,0.00,1136.00,14,11.00,4.00,1.23,0.00,0.00,-4.00,0,,,100,100,0,2,0,0,0,1,0,,,,,0.0,0.0,0
51.519486,5.858142,1.10,1.20,0.40,0.13,1.10,1.10,0.50,0.13,1698,2020-09-29 13:43:50.223,2020-09-29 15:43:50.223,18,0,0,16.586,51.519486,5.858140,0.00,0.00,-0.40,-0.30,1.00,112.40,0,1,0,91,100,-7248,3189,16586,3031.50,11,WP,1,0,0,0,0,0,0,1601387030222,4278,4271,4263,4267,0,0,27,,,,,,,0,0,0,3.00,10.00,1124.00,1.00,0.00,1136.00,14,11.00,4.00,1.30,0.00,0.00,-4.00,0,,,100,100,0,2,0,0,0,1,0,,,,,0.0,0.0,0
51.519486,5.858142,1.20,1.30,0.40,0.14,1.20,1.20,0.50,0.14,1849,2020-09-29 13:43:50.373,2020-09-29 15:43:50.373,18,0,0,16.586,51.519486,5.858140,0.00,0.00,-0.40,-0.30,1.70,112.40,0,1,0,91,100,-7248,3189,16586,3031.50,11,WP,1,0,0,0,0,0,0,1601387030373,4278,4271,4263,4267,0,0,27,,,,,,,0,0,0,3.00,17.00,1124.00,1.00,0.00,1136.00,14,12.00,4.00,1.39,0.00,0.00,-4.00,0,,,100,100,0,2,0,0,0,1,0,,,,,0.0,0.0,0
51.519486,5.858142,1.20,1.30,0.40,0.15,1.20,1.20,0.50,0.15,1949,2020-09-29 13:43:50.473,2020-09-29 15:43:50.473,18,0,0,16.586,51.519486,5.858140,0.00,0.00,-0.40,0.00,1.60,112.30,0,1,0,91,100,-7248,3189,16586,3031.50,11,WP,1,0,0,0,0,0,0,1601387030473,4278,4271,4263,4267,0,0,27,,,,,,,0,0,0,-0.00,16.00,1123.00,1.00,0.00,1136.00,14,12.00,4.00,1.49,0.00,0.00,-4.00,0,,,100,100,0,2,0,0,0,1,0,,,,,0.0,0.0,0
51.519486,5.858142,1.30,1.40,0.40,0.16,1.30,1.30,0.50,0.16,1998,2020-09-29 13:43:50.523,2020-09-29 15:43:50.523,18,0,0,16.586,51.519486,5.858140,0.00,0.00,-0.40,0.00,2.30,112.20,0,1,0,91,100,-7248,3189,16586,3031.50,11,WP,1,0,0,0,0,0,0,1601387030522,4278,4271,4263,4267,0,0,27,,,,,,,0,0,0,-0.00,23.00,1122.00,1.00,0.00,1136.00,14,13.00,4.00,1.58,0.00,0.00,-4.00,0,,,100,100,0,2,0,0,0,1,0,,,,,0.0,0.0,0
51.519486,5.858142,1.30,1.40,0.50,0.17,1.30,1.30,0.50,0.17,2098,2020-09-29 13:43:50.622,2020-09-29 15:43:50.622,18,0,0,16.586,51.519486,5.858140,0.00,0.00,-0.50,0.00,1.80,112.20,0,1,0,91,100,-7248,3189,16586,3031.50,11,WP,1,0,0,0,0,0,0,1601387030622,4278,4271,4263,4267,0,0,27,,,,,,,0,0,0,-0.00,18.00,1122.00,1.00,0.00,1136.00,14,13.00,5.00,1.70,0.00,0.00,-5.00,0,,,100,100,0,2,0,0,0,1,0,,,,,0.0,0.0,0
51.519487,5.858143,1.40,1.50,0.70,0.18,1.40,1.40,0.70,0.18,2199,2020-09-29 13:43:50.723,2020-09-29 15:43:50.723,18,0,0,16.586,51.519486,5.858140,0.00,0.00,-0.70,0.00,1.60,112.30,0,1,0,91,100,-7248,3189,16586,3031.50,11,WP,1,0,0,0,0,0,0,1601387030723,4278,4271,4263,4267,0,0,27,,,,,,,0,0,0,-0.00,16.00,1123.00,1.00,0.00,1136.00,14,14.00,7.00,1.81,0.00,0.00,-7.00,0,,,100,100,0,2,0,0,0,1,0,,,,,0.0,0.0,0
51.519487,5.858143,1.50,1.60,1.00,0.19,1.50,1.50,1.00,0.19,2296,2020-09-29 13:43:50.820,2020-09-29 15:43:50.820,18,0,0,16.586,51.519486,5.858140,0.00,0.00,-1.00,0.00,1.70,112.50,0,1,0,91,100,-7248,3189,16586,3031.50,11,WP,1,0,0,0,0,0,0,1601387030820,4278,4271,4263,4267,0,0,27,,,,,,,0,0,0,-0.00,17.00,1125.00,1.00,0.00,1135.00,14,15.00,10.00,1.87,0.00,0.00,-10.00,0,,,100,100,0,2,0,0,0,1,0,,,,,0.0,0.0,0
51.519487,5.858143,1.60,1.70,1.40,0.20,1.60,1.60,1.40,0.20,2398,2020-09-29 13:43:50.923,2020-09-29 15:43:50.923,18,0,0,16.586,51.519486,5.858140,0.00,0.00,-1.40,0.50,1.40,112.50,0,1,0,91,100,-7248,3189,16586,3031.50,11,WP,1,0,0,0,0,0,0,1601387030922,4278,4271,4263,4267,0,0,27,,,,,,,0,0,0,-5.00,14.00,1125.00,1.00,0.00,1135.00,14,16.00,14.00,1.97,0.00,0.00,-14.00,0,,,100,100,0,2,0,0,0,1,0,,,,,0.0,0.0,0
51.519487,5.858143,1.70,1.90,1.70,0.20,1.70,1.70,1.70,0.20,2497,2020-09-29 13:43:51.022,2020-09-29 15:43:51.022,18,0,0,16.586,51.519486,5.858140,0.00,0.00,-1.70,0.30,1.60,112.60,0,1,0,91,100,-7248,3189,16586,3031.50,11,WP,1,0,0,0,0,0,0,1601387031021,4278,4271,4263,4267,0,0,27,,,,,,,0,0,0,-3.00,16.00,1126.00,1.00,0.00,1135.00,14,17.00,17.00,1.96,0.00,0.00,-17.00,0,,,100,100,0,2,0,0,0,1,0,,,,,0.0,0.0,0
51.519487,5.858143,1.90,2.10,2.10,0.21,1.90,1.90,2.10,0.21,2613,2020-09-29 13:43:51.138,2020-09-29 15:43:51.138,18,0,0,16.586,51.519486,5.858140,0.00,0.00,-2.10,0.10,2.00,112.70,0,1,0,91,100,-7248,3189,16586,3031.50,11,WP,1,0,0,0,0,0,0,1601387031137,4278,4271,4263,4267,0,0,27,,,,,,,0,0,0,-1.00,20.00,1127.00,1.00,0.00,1135.00,14,19.00,21.00,2.06,0.00,0.00,-21.00,0,,,100,100,0,2,0,0,0,1,0,,,,,0.0,0.0,0
51.519487,5.858143,2.20,2.30,2.40,0.23,2.20,2.20,2.40,0.23,2698,2020-09-29 13:43:51.223,2020-09-29 15:43:51.223,18,0,0,16.586,51.519486,5.858140,0.00,0.00,-2.40,0.50,2.70,112.60,0,1,0,91,100,-7248,3189,16586,3031.50,11,WP,1,0,0,0,0,0,0,1601387031222,4278,4271,4263,4267,0,0,27,,,,,,,0,0,0,-5.00,27.00,1126.00,1.00,0.00,1134.00,14,22.00,24.00,2.25,0.00,0.00,-24.00,0,,,100,100,0,2,0,0,0,1,0,,,,,0.0,0.0,0
51.519487,5.858143,2.40,2.60,2.70,0.24,2.40,2.40,2.70,0.24,2800,2020-09-29 13:43:51.324,2020-09-29 15:43:51.324,18,0,0,16.586,51.519486,5.858140,0.00,0.00,-2.70,0.40,2.70,112.50,0,1,0,91,100,-7248,3189,16586,3031.50,11,WP,1,0,0,0,0,0,0,1601387031324,4278,4271,4263,4267,0,0,27,,,,,,,0,0,0,-4.00,27.00,1125.00,1.00,0.00,1134.00,14,24.00,27.00,2.35,0.00,0.00,-27.00,0,,,100,100,0,2,0,0,0,1,0,,,,,0.0,0.0,0
51.519487,5.858143,2.70,2.90,3.00,0.23,2.70,2.70,3.00,0.24,2901,2020-09-29 13:43:51.426,2020-09-29 15:43:51.426,18,0,0,16.586,51.519486,5.858140,0.00,0.00,-3.00,0.50,2.90,112.60,0,1,0,91,100,-7248,3189,16586,3031.50,11,WP,1,0,0,0,0,0,0,1601387031425,4278,4271,4263,4267,0,0,27,,,,,,,0,0,0,-5.00,29.00,1126.00,1.00,0.00,1134.00,14,27.00,30.00,2.31,0.00,0.00,-30.00,0,,,100,100,0,2,0,0,0,1,0,,,,,0.0,0.0,0
51.519487,5.858143,3.00,3.20,3.10,0.24,3.00,3.00,3.10,0.24,2997,2020-09-29 13:43:51.522,2020-09-29 15:43:51.522,18,0,0,16.586,51.519486,5.858140,0.00,0.00,-3.10,0.10,3.00,112.40,0,1,0,91,100,-7248,3189,16586,3031.50,11,WP,1,0,0,0,0,0,0,1601387031521,4278,4271,4263,4267,0,0,27,,,,,,,0,0,0,-1.00,30.00,1124.00,1.00,0.00,1134.00,14,30.00,31.00,2.38,0.00,0.00,-31.00,0,,,100,100,0,2,0,0,0,1,0,,,,,0.0,0.0,0
51.519488,5.858143,3.30,3.50,3.20,0.27,3.30,3.30,3.20,0.27,3097,2020-09-29 13:43:51.621,2020-09-29 15:43:51.621,18,0,0,16.586,51.519486,5.858140,0.00,0.00,-3.20,0.40,3.10,112.60,0,1,0,91,100,-7248,3189,16586,3031.50,11,WP,1,0,0,0,0,0,0,1601387031621,4278,4271,4263,4267,0,0,27,,,,,,,0,0,0,-4.00,31.00,1126.00,1.00,0.00,1134.00,14,33.00,32.00,2.67,0.00,0.00,-32.00,0,,,100,100,0,2,0,0,0,1,0,,,,,0.0,0.0,0
51.519488,5.858143,3.70,3.80,3.20,0.27,3.70,3.70,3.20,0.27,3263,2020-09-29 13:43:51.788,2020-09-29 15:43:51.788,18,0,0,16.586,51.519486,5.858140,0.00,0.00,-3.20,0.40,3.00,112.50,0,1,0,91,100,-7248,3189,16586,3031.50,11,WP,1,0,0,0,0,0,0,1601387031787,4278,4271,4263,4267,0,0,27,,,,,,,0,0,0,-4.00,30.00,1125.00,1.00,0.00,1134.00,14,37.00,32.00,2.74,0.00,0.00,-32.00,0,,,100,100,0,2,0,0,0,1,0,,,,,0.0,0.0,0
51.519488,5.858143,4.00,4.10,3.20,0.29,4.00,4.00,3.20,0.29,3296,2020-09-29 13:43:51.821,2020-09-29 15:43:51.821,18,0,0,16.586,51.519486,5.858140,0.00,0.00,-3.20,0.40,2.90,112.60,0,1,0,91,100,-7248,3189,16586,3031.50,11,WP,1,0,0,0,0,0,0,1601387031820,4278,4271,4263,4267,0,0,27,,,,,,,0,0,0,-4.00,29.00,1126.00,1.00,0.00,1133.00,14,40.00,32.00,2.89,0.00,0.00,-32.00,0,,,100,100,0,2,0,0,0,1,0,,,,,0.0,0.0,0
51.519488,5.858143,4.30,4.40,3.20,0.29,4.30,4.30,3.20,0.29,3433,2020-09-29 13:43:51.957,2020-09-29 15:43:51.958,18,0,0,16.586,51.519486,5.858140,0.00,0.00,-3.20,0.50,2.40,112.60,0,1,0,91,100,-7248,3189,16586,3031.50,11,WP,1,0,0,0,0,0,0,1601387031957,4278,4271,4263,4267,0,0,27,,,,,,,0,0,0,-5.00,24.00,1126.00,1.00,0.00,1133.00,14,43.00,32.00,2.94,0.00,0.00,-32.00,0,,,100,100,0,2,0,0,0,1,0,,,,,0.0,0.0,0
51.519488,5.858142,4.60,4.70,3.10,0.29,4.60,4.60,3.20,0.29,3500,2020-09-29 13:43:52.025,2020-09-29 15:43:52.025,18,0,0,16.586,51.519486,5.858140,0.00,0.00,-3.10,0.50,2.20,112.50,0,1,0,91,100,-7248,3189,16586,3031.50,11,WP,1,0,0,0,0,0,0,1601387032024,4278,4271,4263,4267,0,0,27,,,,,,,0,0,0,-5.00,22.00,1125.00,1.00,0.00,1133.00,14,46.00,31.00,2.89,0.00,0.00,-31.00,0,,,100,100,0,2,0,0,0,1,0,,,,,0.0,0.0,0
51.519488,5.858142,4.90,5.10,3.10,0.29,4.90,4.90,3.20,0.29,3597,2020-09-29 13:43:52.121,2020-09-29 15:43:52.121,18,0,0,16.300,51.519486,5.858140,0.00,0.00,-3.10,0.40,2.20,112.50,0,1,0,91,100,-9484,3185,16300,3031.50,11,WP,1,0,0,0,0,0,0,1601387032121,4278,4271,4263,4267,0,0,27,,,,,,,0,0,0,-4.00,22.00,1125.00,1.00,0.00,1133.00,14,49.00,31.00,2.93,0.00,0.00,-31.00,0,,,100,100,0,2,0,0,0,1,0,,,,,0.0,0.0,0
51.519488,5.858143,5.30,5.40,3.10,0.27,5.30,5.30,3.20,0.29,3695,2020-09-29 13:43:52.219,2020-09-29 15:43:52.219,17,0,0,16.300,51.519486,5.858140,0.00,0.00,-3.10,0.70,2.10,112.50,0,1,0,91,100,-9484,3185,16300,3031.50,11,WP,1,0,0,0,0,0,0,1601387032219,4278,4271,4263,4267,0,0,27,,,,,,,0,0,0,-7.00,21.00,1125.00,1.00,0.00,1133.00,14,53.00,31.00,2.72,0.00,0.00,-31.00,0,,,100,100,0,2,0,0,0,1,0,,,,,0.0,0.0,0
51.519488,5.858143,5.60,5.70,3.10,0.27,5.60,5.60,3.20,0.29,3792,2020-09-29 13:43:52.317,2020-09-29 15:43:52.317,17,0,0,16.300,51.519486,5.858140,0.00,0.00,-3.10,1.00,2.20,112.40,0,1,0,91,100,-9484,3185,16300,3031.50,11,WP,1,0,0,0,0,0,0,1601387032316,4278,4271,4263,4267,0,0,27,,,,,,,0,0,0,-10.00,22.00,1124.00,1.00,0.00,1133.00,14,56.00,31.00,2.74,0.00,0.00,-31.00,0,,,100,100,0,2,0,0,0,1,0,,,,,0.0,0.0,0
51.519488,5.858143,5.90,6.00,3.10,0.28,5.90,5.90,3.20,0.29,3900,2020-09-29 13:43:52.425,2020-09-29 15:43:52.425,18,0,0,16.300,51.519486,5.858140,0.00,0.00,-3.10,1.20,2.10,112.50,0,1,0,91,100,-9484,3185,16300,3031.50,11,WP,1,0,0,0,0,0,0,1601387032424,4278,4271,4263,4267,0,0,27,,,,,,,0,0,0,-12.00,21.00,1125.00,1.00,0.00,1133.00,14,59.00,31.00,2.80,0.00,0.00,-31.00,0,,,100,100,0,2,0,0,0,1,0,,,,,0.0,0.0,0
51.519488,5.858143,6.20,6.30,3.10,0.28,6.20,6.20,3.20,0.29,3997,2020-09-29 13:43:52.522,2020-09-29 15:43:52.522,18,0,0,16.300,51.519486,5.858140,0.00,0.00,-3.10,1.00,2.10,112.50,0,1,0,91,100,-9484,3185,16300,3031.50,11,WP,1,0,0,0,0,0,0,1601387032521,4278,4271,4263,4267,0,0,27,,,,,,,0,0,0,-10.00,21.00,1125.00,1.00,0.00,1133.00,14,62.00,31.00,2.83,0.00,0.00,-31.00,0,,,100,100,0,2,0,0,0,1,0,,,,,0.0,0.0,0
51.519488,5.858142,6.50,6.60,3.00,0.27,6.50,6.50,3.20,0.29,4096,2020-09-29 13:43:52.621,2020-09-29 15:43:52.621,18,0,0,16.300,51.519486,5.858140,0.00,0.00,-3.00,0.90,2.20,112.50,0,1,0,91,100,-9484,3185,16300,3031.50,11,WP,1,0,0,0,0,0,0,1601387032620,4278,4271,4263,4267,0,0,27,,,,,,,0,0,0,-9.00,22.00,1125.00,1.00,0.00,1133.00,14,65.00,30.00,2.70,0.00,0.00,-30.00,0,,,100,100,0,2,0,0,0,1,0,,,,,0.0,0.0,0
51.519488,5.858142,6.80,6.90,3.10,0.27,6.80,6.80,3.20,0.29,4198,2020-09-29 13:43:52.722,2020-09-29 15:43:52.722,18,0,0,16.300,51.519486,5.858140,0.00,0.00,-3.10,0.80,2.10,112.50,0,1,0,91,100,-9484,3185,16300,3031.50,11,WP,1,0,0,0,0,0,0,1601387032722,4278,4271,4263,4267,0,0,27,,,,,,,0,0,0,-8.00,21.00,1125.00,1.00,0.00,1133.00,14,68.00,31.00,2.74,0.00,0.00,-31.00,0,,,100,100,0,2,0,0,0,1,0,,,,,0.0,0.0,0
51.519488,5.858142,7.10,7.20,3.10,0.27,7.10,7.10,3.20,0.29,4299,2020-09-29 13:43:52.823,2020-09-29 15:43:52.823,18,0,0,16.300,51.519486,5.858140,0.00,0.10,-3.10,1.10,2.50,112.50,0,1,0,91,100,-9484,3185,16300,3031.50,11,WP,1,0,0,0,0,0,0,1601387032823,4278,4271,4263,4267,0,0,27,,,,,,,0,0,0,-11.00,25.00,1125.00,1.00,0.00,1133.00,14,71.00,31.02,2.70,0.00,1.00,-31.00,0,,,100,100,0,2,0,0,0,1,0,,,,,0.0,0.0,0
51.519488,5.858142,7.40,7.50,3.10,0.28,7.40,7.40,3.20,0.29,4399,2020-09-29 13:43:52.923,2020-09-29 15:43:52.924,18,0,0,16.300,51.519486,5.858140,0.00,0.10,-3.10,1.70,3.00,112.50,0,1,0,91,100,-9484,3185,16300,3031.50,11,WP,1,0,0,0,0,0,0,1601387032923,4278,4271,4263,4267,0,0,27,,,,,,,0,0,0,-17.00,30.00,1125.00,1.00,0.00,1133.00,14,74.00,31.02,2.76,0.00,1.00,-31.00,0,,,100,100,0,2,0,0,0,1,0,,,,,0.0,0.0,0
51.519488,5.858142,7.80,7.80,3.00,0.29,7.80,7.80,3.20,0.29,4500,2020-09-29 13:43:53.024,2020-09-29 15:43:53.024,18,0,0,16.300,51.519486,5.858140,0.00,0.10,-3.00,2.00,3.30,112.50,0,1,0,91,100,-9484,3185,16300,3031.50,11,WP,1,0,0,0,0,0,0,1601387033024,4278,4271,4263,4267,0,0,27,,,,,,,0,0,0,-20.00,33.00,1125.00,1.00,0.00,1133.00,14,78.00,30.02,2.89,0.00,1.00,-30.00,0,,,100,100,0,2,0,0,0,1,0,,,,,0.0,0.0,0
51.519488,5.858142,8.10,8.20,3.00,0.30,8.10,8.10,3.20,0.30,4602,2020-09-29 13:43:53.127,2020-09-29 15:43:53.127,18,0,0,16.300,51.519486,5.858140,0.00,0.10,-3.00,1.70,3.50,112.60,0,1,0,91,100,-9484,3185,16300,3031.50,11,WP,1,0,0,0,0,0,0,1601387033126,4278,4271,4263,4267,0,0,27,,,,,,,0,0,0,-17.00,35.00,1126.00,1.00,0.00,1133.00,14,81.00,30.02,2.95,0.00,1.00,-30.00,0,,,100,100,0,2,0,0,0,1,0,,,,,0.0,0.0,0
51.519488,5.858142,8.40,8.50,3.00,0.25,8.40,8.40,3.20,0.30,4700,2020-09-29 13:43:53.225,2020-09-29 15:43:53.225,18,0,0,16.300,51.519486,5.858140,0.00,0.10,-3.00,1.50,3.00,112.60,0,1,0,91,100,-9484,3185,16300,3031.50,11,WP,1,0,0,0,0,0,0,1601387033224,4278,4271,4263,4267,0,0,27,,,,,,,0,0,0,-15.00,30.00,1126.00,1.00,0.00,1133.00,14,84.00,30.02,2.51,0.00,1.00,-30.00,0,,,100,100,0,2,0,0,0,1,0,,,,,0.0,0.0,0
51.519488,5.858142,8.70,8.80,3.00,0.25,8.70,8.70,3.20,0.30,4798,2020-09-29 13:43:53.322,2020-09-29 15:43:53.322,18,0,0,16.300,51.519486,5.858140,0.00,0.10,-3.00,2.00,2.80,112.60,0,1,0,91,100,-9484,3185,16300,3031.50,11,WP,1,0,0,0,0,0,0,1601387033322,4278,4271,4263,4267,0,0,27,,,,,,,0,0,0,-20.00,28.00,1126.00,1.00,0.00,1133.00,14,87.00,30.02,2.52,0.00,1.00,-30.00,0,,,100,100,0,2,0,0,0,1,0,,,,,0.0,0.0,0
51.519487,5.858142,9.00,9.10,3.00,0.22,9.00,9.00,3.20,0.30,4896,2020-09-29 13:43:53.421,2020-09-29 15:43:53.421,17,0,0,16.300,51.519486,5.858140,0.00,0.10,-3.00,2.00,2.50,112.50,0,1,0,91,100,-9484,3185,16300,3031.50,11,WP,1,0,0,0,0,0,0,1601387033420,4278,4271,4263,4267,0,0,27,,,,,,,0,0,0,-20.00,25.00,1125.00,1.00,0.00,1133.00,14,90.00,30.02,2.19,0.00,1.00,-30.00,0,,,100,100,0,2,0,0,0,1,0,,,,,0.0,0.0,0
51.519487,5.858142,9.30,9.40,3.00,0.22,9.30,9.30,3.20,0.30,4997,2020-09-29 13:43:53.522,2020-09-29 15:43:53.522,17,0,0,16.300,51.519486,5.858140,0.00,0.10,-3.00,2.20,2.70,112.50,0,1,0,91,100,-9484,3185,16300,3031.50,11,WP,1,0,0,0,0,0,0,1601387033521,4278,4271,4263,4267,0,0,27,,,,,,,0,0,0,-22.00,27.00,1125.00,1.00,0.00,1132.00,14,93.00,30.02,2.18,0.00,1.00,-30.00,0,,,100,100,0,2,0,0,0,1,0,,,,,0.0,0.0,0
51.519487,5.858142,9.60,9.70,3.00,0.22,9.60,9.60,3.20,0.30,5097,2020-09-29 13:43:53.621,2020-09-29 15:43:53.621,18,0,0,16.300,51.519486,5.858140,0.00,0.10,-3.00,2.30,3.10,112.50,0,1,0,91,100,-9484,3185,16300,3031.50,11,WP,1,0,0,0,0,0,0,1601387033621,4278,4271,4263,4267,0,0,27,,,,,,,0,0,0,-23.00,31.00,1125.00,1.00,0.00,1132.00,14,96.00,30.02,2.24,0.00,1.00,-30.00,0,,,100,100,0,2,0,0,0,1,0,,,,,0.0,0.0,0
51.519487,5.858142,9.90,10.00,3.00,0.22,9.90,9.90,3.20,0.30,5202,2020-09-29 13:43:53.726,2020-09-29 15:43:53.726,18,0,0,16.300,51.519486,5.858140,0.00,0.10,-3.00,1.90,3.20,112.50,0,1,0,91,100,-9484,3185,16300,3031.50,11,WP,1,0,0,0,0,0,0,1601387033726,4278,4271,4263,4267,0,0,27,,,,,,,0,0,0,-19.00,32.00,1125.00,1.00,0.00,1132.00,14,99.00,30.02,2.25,0.00,1.00,-30.00,0,,,100,100,0,2,0,0,0,1,0,,,,,0.0,0.0,0
51.519488,5.858142,10.20,10.30,3.00,0.28,10.20,10.20,3.20,0.30,5298,2020-09-29 13:43:53.822,2020-09-29 15:43:53.822,18,0,0,16.300,51.519486,5.858140,0.00,0.10,-3.00,1.60,4.00,112.60,0,1,0,91,100,-9484,3185,16300,3031.50,11,WP,1,0,0,0,0,0,0,1601387033822,4278,4271,4263,4267,0,0,27,,,,,,,0,0,0,-16.00,40.00,1126.00,1.00,0.00,1132.00,14,102.00,30.02,2.78,0.00,1.00,-30.00,0,,,100,100,0,2,0,0,0,1,0,,,,,0.0,0.0,0
51.519488,5.858142,10.50,10.60,2.90,0.29,10.50,10.50,3.20,0.30,5399,2020-09-29 13:43:53.924,2020-09-29 15:43:53.924,18,0,0,16.300,51.519486,5.858140,0.00,0.10,-2.90,1.60,5.00,112.50,0,1,0,91,100,-9484,3185,16300,3031.50,11,WP,1,0,0,0,0,0,0,1601387033923,4278,4271,4263,4267,0,0,27,,,,,,,0,0,0,-16.00,50.00,1125.00,1.00,0.00,1132.00,14,105.00,29.02,2.86,0.00,1.00,-29.00,0,,,100,100,0,2,0,0,0,1,0,,,,,0.0,0.0,0
51.519488,5.858142,10.80,10.90,2.70,0.31,10.80,10.80,3.20,0.31,5502,2020-09-29 13:43:54.026,2020-09-29 15:43:54.026,18,0,0,16.300,51.519486,5.858140,0.00,0.10,-2.70,1.50,5.50,112.50,0,1,0,91,100,-9484,3185,16300,3031.50,11,WP,1,0,0,0,0,0,0,1601387034026,4278,4271,4263,4267,0,0,27,,,,,,,0,0,0,-15.00,55.00,1125.00,1.00,0.00,1132.00,14,108.00,27.02,3.09,0.00,1.00,-27.00,0,,,100,100,0,2,0,0,0,1,0,,,,,0.0,0.0,0
51.519488,5.858142,11.00,0.00,2.60,0.31,11.00,11.00,3.20,0.31,5601,2020-09-29 13:43:54.125,2020-09-29 15:43:54.125,18,0,0,16.418,51.519486,5.858140,0.00,0.10,-2.60,1.30,5.70,112.60,0,1,0,91,100,-8564,3180,16418,3031.50,11,WP,1,0,0,0,0,0,0,1601387034125,4120,4092,4088,4104,0,0,27,,,,,,,0,0,0,-13.00,57.00,1126.00,1.00,0.00,1132.00,14,110.00,26.02,3.15,0.00,1.00,-26.00,0,,,100,100,0,2,0,0,0,1,0,,,,,0.0,0.0,0
51.519488,5.858142,11.30,0.00,2.40,0.30,11.30,11.30,3.20,0.31,5698,2020-09-29 13:43:54.223,2020-09-29 15:43:54.223,18,0,0,16.418,51.519486,5.858140,0.00,0.10,-2.40,1.50,5.40,112.60,0,1,0,91,100,-8564,3180,16418,3031.50,11,WP,1,0,0,0,0,0,0,1601387034222,4120,4092,4088,4104,0,0,27,,,,,,,0,0,0,-15.00,54.00,1126.00,1.00,0.00,1132.00,14,113.00,24.02,2.98,0.00,1.00,-24.00,0,,,100,100,0,2,0,0,0,1,0,,,,,0.0,0.0,0
51.519488,5.858142,11.60,0.00,2.30,0.30,11.60,11.60,3.20,0.31,5796,2020-09-29 13:43:54.320,2020-09-29 15:43:54.320,18,0,0,16.418,51.519486,5.858140,0.00,0.10,-2.30,1.80,4.90,112.60,0,1,0,91,100,-8564,3180,16418,3031.50,11,WP,1,0,0,0,0,0,0,1601387034320,4120,4092,4088,4104,0,0,27,,,,,,,0,0,0,-18.00,49.00,1126.00,1.00,0.00,1132.00,14,116.00,23.02,2.99,0.00,1.00,-23.00,0,,,100,100,0,2,0,0,0,1,0,,,,,0.0,0.0,0
51.519488,5.858142,11.80,0.00,2.20,0.27,11.80,11.80,3.20,0.31,5903,2020-09-29 13:43:54.427,2020-09-29 15:43:54.427,18,0,0,16.418,51.519486,5.858140,0.00,0.10,-2.20,2.10,4.50,112.60,0,1,0,91,100,-8564,3180,16418,3031.50,11,WP,1,0,0,0,0,0,0,1601387034427,4120,4092,4088,4104,0,0,27,,,,,,,0,0,0,-21.00,45.00,1126.00,1.00,0.00,1132.00,14,118.00,22.02,2.66,0.00,1.00,-22.00,0,,,100,100,0,2,0,0,0,1,0,,,,,0.0,0.0,0
51.519488,5.858142,12.00,0.00,2.10,0.26,12.00,12.00,3.20,0.31,5998,2020-09-29 13:43:54.522,2020-09-29 15:43:54.522,18,0,0,16.418,51.519486,5.858140,0.00,0.00,-2.10,2.30,4.10,112.60,0,1,0,91,100,-8564,3180,16418,3031.50,11,WP,1,0,0,0,0,0,0,1601387034522,4120,4092,4088,4104,0,0,27,,,,,,,0,0,0,-23.00,41.00,1126.00,1.00,0.00,1132.00,14,120.00,21.00,2.61,0.00,0.00,-21.00,0,,,100,100,0,2,0,0,0,1,0,,,,,0.0,0.0,0
51.519488,5.858142,12.20,0.00,2.00,0.26,12.20,12.20,3.20,0.31,6099,2020-09-29 13:43:54.624,2020-09-29 15:43:54.624,18,0,0,16.418,51.519486,5.858140,0.00,0.00,-2.00,2.20,4.10,112.50,0,1,0,91,100,-8564,3180,16418,3031.50,11,WP,1,0,0,0,0,0,0,1601387034623,4120,4092,4088,4104,0,0,27,,,,,,,0,0,0,-22.00,41.00,1125.00,1.00,0.00,1132.00,14,122.00,20.00,2.64,0.00,0.00,-20.00,0,,,100,100,0,2,0,0,0,1,0,,,,,0.0,0.0,0
51.519488,5.858142,12.40,0.00,1.90,0.26,12.40,12.40,3.20,0.31,6199,2020-09-29 13:43:54.723,2020-09-29 15:43:54.723,18,0,0,16.418,51.519486,5.858140,0.00,0.00,-1.90,2.00,4.30,112.50,0,1,0,91,100,-8564,3180,16418,3031.50,11,WP,1,0,0,0,0,0,0,1601387034723,4120,4092,4088,4104,0,0,27,,,,,,,0,0,0,-20.00,43.00,1125.00,1.00,0.00,1132.00,14,124.00,19.00,2.59,0.00,0.00,-19.00,0,,,100,100,0,2,0,0,0,1,0,,,,,0.0,0.0,0
51.519487,5.858142,12.60,0.00,1.80,0.25,12.60,12.60,3.20,0.31,6302,2020-09-29 13:43:54.827,2020-09-29 15:43:54.827,18,0,0,16.418,51.519486,5.858140,0.00,0.00,-1.80,1.90,4.40,112.50,0,1,0,91,100,-8564,3180,16418,3031.50,11,WP,1,0,0,0,0,0,0,1601387034826,4120,4092,4088,4104,0,0,27,,,,,,,0,0,0,-19.00,44.00,1125.00,1.00,0.00,1132.00,14,126.00,18.00,2.49,0.00,0.00,-18.00,0,,,100,100,0,2,0,0,0,1,0,,,,,0.0,0.0,0
51.519487,5.858142,12.80,0.00,1.80,0.24,12.80,12.80,3.20,0.31,6401,2020-09-29 13:43:54.926,2020-09-29 15:43:54.926,18,0,0,16.418,51.519486,5.858140,0.00,0.00,-1.80,1.80,4.50,112.50,0,1,0,91,100,-8564,3180,16418,3031.50,11,WP,1,0,0,0,0,0,0,1601387034925,4120,4092,4088,4104,0,0,27,,,,,,,0,0,0,-18.00,45.00,1125.00,1.00,0.00,1132.00,14,128.00,18.00,2.43,0.00,0.00,-18.00,0,,,100,100,0,2,0,0,0,1,0,,,,,0.0,0.0,0
51.519488,5.858142,13.00,0.00,1.70,0.25,13.00,13.00,3.20,0.31,6497,2020-09-29 13:43:55.022,2020-09-29 15:43:55.022,18,0,0,16.418,51.519486,5.858140,0.00,0.00,-1.70,1.80,4.50,112.60,0,1,0,91,100,-8564,3180,16418,3031.50,11,WP,1,0,0,0,0,0,0,1601387035021,4120,4092,4088,4104,0,0,27,,,,,,,0,0,0,-18.00,45.00,1126.00,1.00,0.00,1132.00,14,130.00,17.00,2.51,0.00,0.00,-17.00,0,,,100,100,0,2,0,0,0,1,0,,,,,0.0,0.0,0
51.519487,5.858142,13.10,0.00,1.70,0.24,13.10,13.10,3.20,0.31,6608,2020-09-29 13:43:55.132,2020-09-29 15:43:55.133,18,0,0,16.418,51.519486,5.858140,0.00,0.00,-1.70,2.00,4.50,112.60,0,1,0,91,100,-8564,3180,16418,3031.50,11,WP,1,0,0,0,0,0,0,1601387035132,4120,4092,4088,4104,0,0,27,,,,,,,0,0,0,-20.00,45.00,1126.00,1.00,0.00,1132.00,14,131.00,17.00,2.44,0.00,0.00,-17.00,0,,,100,100,0,2,0,0,0,1,0,,,,,0.0,0.0,0
51.519487,5.858142,13.30,0.00,1.60,0.23,13.30,13.30,3.20,0.31,6702,2020-09-29 13:43:55.227,2020-09-29 15:43:55.227,18,0,0,16.418,51.519486,5.858140,0.00,0.00,-1.60,1.80,4.20,112.60,0,1,0,91,100,-8564,3180,16418,3031.50,11,WP,1,0,0,0,0,0,0,1601387035226,4120,4092,4088,4104,0,0,27,,,,,,,0,0,0,-18.00,42.00,1126.00,1.00,0.00,1132.00,14,133.00,16.00,2.30,0.00,0.00,-16.00,0,,,100,100,0,2,0,0,0,1,0,,,,,0.0,0.0,0
51.519487,5.858142,13.50,0.00,1.50,0.22,13.50,13.50,3.20,0.31,6801,2020-09-29 13:43:55.326,2020-09-29 15:43:55.326,18,0,0,16.418,51.519486,5.858140,0.00,0.00,-1.50,1.80,4.00,112.60,0,1,0,91,100,-8564,3180,16418,3031.50,11,WP,1,0,0,0,0,0,0,1601387035325,4120,4092,4088,4104,0,0,27,,,,,,,0,0,0,-18.00,40.00,1126.00,1.00,0.00,1132.00,14,135.00,15.00,2.22,0.00,0.00,-15.00,0,,,100,100,0,2,0,0,0,1,0,,,,,0.0,0.0,0
51.519487,5.858142,13.60,0.00,1.40,0.18,13.60,13.60,3.20,0.31,6902,2020-09-29 13:43:55.427,2020-09-29 15:43:55.427,18,0,0,16.418,51.519486,5.858140,0.00,0.00,-1.40,1.50,3.50,112.50,0,1,0,91,100,-8564,3180,16418,3031.50,11,WP,1,0,0,0,0,0,0,1601387035426,4120,4092,4088,4104,0,0,27,,,,,,,0,0,0,-15.00,35.00,1125.00,1.00,0.00,1132.00,14,136.00,14.00,1.83,0.00,0.00,-14.00,0,,,100,100,0,2,0,0,0,1,0,,,,,0.0,0.0,0
51.519487,5.858142,13.70,0.00,1.30,0.17,13.70,13.70,3.20,0.31,7049,2020-09-29 13:43:55.574,2020-09-29 15:43:55.574,18,0,0,16.418,51.519486,5.858140,0.00,0.00,-1.30,1.20,3.10,112.50,0,1,0,91,100,-8564,3180,16418,3031.50,11,WP,1,0,0,0,0,0,0,1601387035573,4120,4092,4088,4104,0,0,27,,,,,,,0,0,0,-12.00,31.00,1125.00,1.00,0.00,1132.00,14,137.00,13.00,1.73,0.00,0.00,-13.00,0,,,100,100,0,2,0,0,0,1,0,,,,,0.0,0.0,0
51.519487,5.858142,13.90,0.00,1.20,0.19,13.90,13.90,3.20,0.31,7149,2020-09-29 13:43:55.674,2020-09-29 15:43:55.674,18,0,0,16.418,51.519486,5.858140,0.00,0.00,-1.20,1.10,3.40,112.50,0,1,0,91,100,-8564,3180,16418,3031.50,11,WP,1,0,0,0,0,0,0,1601387035673,4120,4092,4088,4104,0,0,27,,,,,,,0,0,0,-11.00,34.00,1125.00,1.00,0.00,1132.00,14,139.00,12.00,1.90,0.00,0.00,-12.00,0,,,100,100,0,2,0,0,0,1,0,,,,,0.0,0.0,0
51.519487,5.858141,14.00,0.00,1.10,0.18,14.00,14.00,3.20,0.31,7200,2020-09-29 13:43:55.725,2020-09-29 15:43:55.725,18,0,0,16.418,51.519486,5.858140,0.00,0.00,-1.10,1.20,3.70,112.40,0,1,0,91,100,-8564,3180,16418,3031.50,11,WP,1,0,0,0,0,0,0,1601387035724,4120,4092,4088,4104,0,0,27,,,,,,,0,0,0,-12.00,37.00,1124.00,1.00,0.00,1132.00,14,140.00,11.00,1.85,0.00,0.00,-11.00,0,,,100,100,0,2,0,0,0,1,0,,,,,0.0,0.0,0
51.519487,5.858141,14.10,0.00,1.00,0.16,14.10,14.10,3.20,0.31,7301,2020-09-29 13:43:55.825,2020-09-29 15:43:55.825,18,0,0,16.418,51.519486,5.858140,0.00,0.00,-1.00,1.00,3.60,112.40,0,1,0,91,100,-8564,3180,16418,3031.50,11,WP,1,0,0,0,0,0,0,1601387035825,4120,4092,4088,4104,0,0,27,,,,,,,0,0,0,-10.00,36.00,1124.00,1.00,0.00,1132.00,14,141.00,10.00,1.61,0.00,0.00,-10.00,0,,,100,100,0,2,0,0,0,1,0,,,,,0.0,0.0,0
51.519487,5.858141,14.20,0.00,1.00,0.16,14.20,14.20,3.20,0.31,7419,2020-09-29 13:43:55.943,2020-09-29 15:43:55.944,18,0,0,16.418,51.519486,5.858140,0.00,0.00,-1.00,0.70,3.30,112.50,0,1,0,91,100,-8564,3180,16418,3031.50,11,WP,1,0,0,0,0,0,0,1601387035943,4120,4092,4088,4104,0,0,27,,,,,,,0,0,0,-7.00,33.00,1125.00,1.00,0.00,1132.00,14,142.00,10.00,1.55,0.00,0.00,-10.00,0,,,100,100,0,2,0,0,0,1,0,,,,,0.0,0.0,0
51.519487,5.858141,14.30,0.00,0.90,0.17,14.30,14.30,3.20,0.31,7503,2020-09-29 13:43:56.028,2020-09-29 15:43:56.028,18,0,0,16.418,51.519486,5.858140,0.00,0.00,-0.90,0.80,3.60,112.50,0,1,0,91,100,-8564,3180,16418,3031.50,11,WP,1,0,0,0,0,0,0,1601387036027,4120,4092,4088,4104,0,0,27,,,,,,,0,0,0,-8.00,36.00,1125.00,1.00,0.00,1132.00,14,143.00,9.00,1.71,0.00,0.00,-9.00,0,,,100,100,0,2,0,0,0,1,0,,,,,0.0,0.0,0
51.519487,5.858141,14.40,0.00,0.80,0.17,14.40,14.40,3.20,0.31,7602,2020-09-29 13:43:56.126,2020-09-29 15:43:56.127,18,0,0,16.531,51.519486,5.858140,0.00,0.00,-0.80,0.90,3.80,112.50,0,1,0,91,100,-6840,3176,16531,3031.50,11,WP,1,0,0,0,0,0,0,1601387036126,4120,4092,4088,4104,0,0,27,,,,,,,0,0,0,-9.00,38.00,1125.00,1.00,0.00,1132.00,14,144.00,8.00,1.70,0.00,0.00,-8.00,0,,,100,100,0,2,0,0,0,1,0,,,,,0.0,0.0,0
51.519487,5.858141,14.40,0.00,0.80,0.16,14.40,14.40,3.20,0.31,7703,2020-09-29 13:43:56.227,2020-09-29 15:43:56.227,18,0,0,16.531,51.519486,5.858140,0.00,0.00,-0.80,0.90,3.70,112.40,0,1,0,91,100,-6840,3176,16531,3031.50,11,WP,1,0,0,0,0,0,0,1601387036227,4120,4092,4088,4104,0,0,27,,,,,,,0,0,0,-9.00,37.00,1124.00,1.00,0.00,1132.00,14,144.00,8.00,1.62,0.00,0.00,-8.00,0,,,100,100,0,2,0,0,0,1,0,,,,,0.0,0.0,0
51.519487,5.858141,14.50,0.00,0.70,0.16,14.50,14.50,3.20,0.31,7803,2020-09-29 13:43:56.327,2020-09-29 15:43:56.327,18,0,0,16.531,51.519486,5.858140,0.00,0.00,-0.70,1.00,3.70,112.40,0,1,0,91,100,-6840,3176,16531,3031.50,11,WP,1,0,0,0,0,0,0,1601387036327,4120,4092,4088,4104,0,0,27,,,,,,,0,0,0,-10.00,37.00,1124.00,1.00,0.00,1132.00,14,145.00,7.00,1.61,0.00,0.00,-7.00,0,,,100,100,0,2,0,0,0,1,0,,,,,0.0,0.0,0
51.519487,5.858141,14.60,0.00,0.70,0.16,14.60,14.60,3.20,0.31,7903,2020-09-29 13:43:56.428,2020-09-29 15:43:56.428,18,0,0,16.531,51.519486,5.858140,0.00,0.00,-0.70,1.60,3.30,112.40,0,1,0,91,100,-6840,3176,16531,3031.50,11,WP,1,0,0,0,0,0,0,1601387036427,4120,4092,4088,4104,0,0,27,,,,,,,0,0,0,-16.00,33.00,1124.00,1.00,0.00,1132.00,14,146.00,7.00,1.59,0.00,0.00,-7.00,0,,,100,100,0,2,0,0,0,1,0,,,,,0.0,0.0,0
51.519487,5.858141,14.60,0.00,0.50,0.16,14.60,14.60,3.20,0.31,8001,2020-09-29 13:43:56.525,2020-09-29 15:43:56.525,18,0,0,16.531,51.519486,5.858140,0.00,0.00,-0.50,2.70,2.90,111.90,0,1,0,91,100,-6840,3176,16531,3031.50,11,WP,1,0,0,0,0,0,0,1601387036525,4120,4092,4088,4104,0,0,27,,,,,,,0,0,0,-27.00,29.00,1119.00,1.00,0.00,1132.00,14,146.00,5.00,1.60,0.00,0.00,-5.00,0,,,100,100,0,2,0,0,0,1,0,,,,,0.0,0.0,0
51.519487,5.858141,14.70,0.00,0.20,0.17,14.70,14.70,3.20,0.31,8102,2020-09-29 13:43:56.627,2020-09-29 15:43:56.627,18,0,0,16.531,51.519486,5.858140,0.00,0.00,-0.20,2.80,3.30,110.80,0,1,0,91,100,-6840,3176,16531,3031.50,11,WP,1,0,0,0,0,0,0,1601387036626,4120,4092,4088,4104,0,0,27,,,,,,,0,0,0,-28.00,33.00,1108.00,1.00,0.00,1132.00,14,147.00,2.00,1.70,0.00,0.00,-2.00,0,,,100,100,0,2,0,0,0,1,0,,,,,0.0,0.0,0
51.519487,5.858141,14.70,0.00,0.10,0.18,14.70,14.70,3.20,0.31,8198,2020-09-29 13:43:56.723,2020-09-29 15:43:56.723,18,0,0,16.531,51.519486,5.858140,0.00,0.00,-0.10,2.40,3.20,109.20,0,1,0,91,100,-6840,3176,16531,3031.50,11,WP,1,0,0,0,0,0,0,1601387036722,4120,4092,4088,4104,0,0,27,,,,,,,0,0,0,-24.00,32.00,1092.00,1.00,0.00,1131.00,14,147.00,1.00,1.77,0.00,0.00,-1.00,0,,,100,100,0,2,0,0,0,1,0,,,,,0.0,0.0,0
51.519487,5.858141,14.70,0.00,0.00,0.17,14.70,14.70,3.20,0.31,8298,2020-09-29 13:43:56.823,2020-09-29 15:43:56.823,18,0,0,16.531,51.519486,5.858140,0.00,0.00,0.00,2.00,3.20,106.90,0,1,0,91,100,-6840,3176,16531,3031.50,11,WP,1,0,0,0,0,0,0,1601387036822,4120,4092,4088,4104,0,0,27,,,,,,,0,0,0,-20.00,32.00,1069.00,1.00,0.00,1126.00,14,147.00,0.00,1.71,0.00,0.00,0.00,0,,,100,100,0,2,0,0,0,1,0,,,,,0.0,0.0,0
51.519487,5.858141,14.70,0.00,0.00,0.18,14.70,14.70,3.20,0.31,8398,2020-09-29 13:43:56.923,2020-09-29 15:43:56.923,18,0,0,16.531,51.519486,5.858140,0.00,0.00,0.00,1.90,3.30,103.90,0,1,0,91,100,-6840,3176,16531,3031.50,11,WP,1,0,0,0,0,0,0,1601387036922,4120,4092,4088,4104,0,0,27,,,,,,,0,0,0,-19.00,33.00,1039.00,1.00,0.00,1112.00,14,147.00,0.00,1.79,0.00,0.00,0.00,0,,,100,100,0,2,0,0,0,1,0,,,,,0.0,0.0,0
51.519487,5.858142,14.70,0.00,0.00,0.15,14.70,14.70,3.20,0.31,8499,2020-09-29 13:43:57.023,2020-09-29 15:43:57.024,18,0,0,16.531,51.519486,5.858140,0.00,0.00,0.00,2.30,3.20,100.60,0,1,0,91,100,-6840,3176,16531,3031.50,11,WP,1,0,0,0,0,0,0,1601387037023,4120,4092,4088,4104,0,0,27,,,,,,,0,0,0,-23.00,32.00,1006.00,1.00,0.00,1088.00,14,147.00,0.00,1.54,0.00,0.00,0.00,0,,,100,100,0,2,0,0,0,1,0,,,,,0.0,0.0,0
51.519487,5.858142,14.70,0.00,0.00,0.16,14.70,14.70,3.20,0.31,8599,2020-09-29 13:43:57.123,2020-09-29 15:43:57.124,18,0,0,16.531,51.519486,5.858140,0.00,0.00,0.00,2.70,2.70,96.70,0,1,0,91,100,-6840,3176,16531,3031.50,11,WP,1,0,0,0,0,0,0,1601387037123,4120,4092,4088,4104,0,0,27,,,,,,,0,0,0,-27.00,27.00,967.00,1.00,0.00,1055.00,14,147.00,0.00,1.59,0.00,0.00,0.00,0,,,100,100,0,2,0,0,0,1,0,,,,,0.0,0.0,0
51.519487,5.858142,14.70,0.00,0.00,0.17,14.70,14.70,3.20,0.31,8700,2020-09-29 13:43:57.225,2020-09-29 15:43:57.225,18,0,0,16.531,51.519486,5.858140,0.00,0.00,0.00,3.00,2.60,92.20,0,1,0,91,100,-6840,3176,16531,3031.50,11,WP,1,0,0,0,0,0,0,1601387037224,4120,4092,4088,4104,0,0,27,,,,,,,0,0,0,-30.00,26.00,922.00,1.00,0.00,1016.00,14,147.00,0.00,1.68,0.00,0.00,0.00,0,,,100,100,0,2,0,0,0,1,0,,,,,0.0,0.0,0
51.519487,5.858142,14.70,0.00,0.00,0.17,14.70,14.70,3.20,0.31,8801,2020-09-29 13:43:57.326,2020-09-29 15:43:57.326,18,0,0,16.531,51.519486,5.858140,0.00,0.00,0.00,3.30,2.30,87.10,0,1,0,91,100,-6840,3176,16531,3031.50,11,WP,1,0,0,0,0,0,0,1601387037325,4120,4092,4088,4104,0,0,27,,,,,,,0,0,0,-33.00,23.00,871.00,1.00,0.00,972.00,14,147.00,0.00,1.74,0.00,0.00,0.00,0,,,100,100,0,2,0,0,0,1,0,,,,,0.0,0.0,0
51.519487,5.858142,14.70,0.00,0.10,0.19,14.70,14.70,3.20,0.31,8901,2020-09-29 13:43:57.425,2020-09-29 15:43:57.426,18,0,0,16.531,51.519486,5.858140,0.00,0.10,0.00,3.90,1.80,81.40,0,1,0,91,100,-6840,3176,16531,3031.50,11,WP,1,0,0,0,0,0,0,1601387037425,4120,4092,4088,4104,0,0,27,,,,,,,0,0,0,-39.00,18.00,814.00,1.00,0.00,921.00,14,147.00,1.00,1.92,0.00,1.00,0.00,0,,,100,100,0,2,0,0,0,1,0,,,,,0.0,0.0,0
51.519487,5.858143,14.70,0.00,0.00,0.20,14.70,14.70,3.20,0.31,8996,2020-09-29 13:43:57.521,2020-09-29 15:43:57.521,18,0,0,16.531,51.519486,5.858140,0.00,0.00,0.00,4.50,1.50,75.20,0,1,0,91,100,-6840,3176,16531,3031.50,11,WP,1,0,0,0,0,0,0,1601387037520,4120,4092,4088,4104,0,0,27,,,,,,,0,0,0,-45.00,15.00,752.00,1.00,0.00,863.00,14,147.00,0.00,1.98,0.00,0.00,0.00,0,,,100,100,0,2,0,0,0,1,0,,,,,0.0,0.0,0
51.519487,5.858143,14.70,0.00,0.00,0.24,14.70,14.70,3.20,0.31,9149,2020-09-29 13:43:57.674,2020-09-29 15:43:57.674,18,0,0,16.531,51.519486,5.858140,0.00,0.00,0.00,4.60,1.00,69.80,0,1,0,91,100,-6840,3176,16531,3031.50,11,WP,1,0,0,0,0,0,0,1601387037673,4120,4092,4088,4104,0,0,27,,,,,,,0,0,0,-46.00,10.00,698.00,1.00,0.00,799.00,14,147.00,0.00,2.36,0.00,0.00,0.00,0,,,100,100,0,2,0,0,0,1,0,,,,,0.0,0.0,0
51.519487,5.858143,14.70,0.00,0.00,0.24,14.70,14.70,3.20,0.31,9202,2020-09-29 13:43:57.726,2020-09-29 15:43:57.726,18,0,0,16.531,51.519486,5.858140,0.00,0.00,0.00,5.20,0.90,66.10,0,1,0,91,100,-6840,3176,16531,3031.50,11,WP,1,0,0,0,0,0,0,1601387037726,4120,4092,4088,4104,0,0,27,,,,,,,0,0,0,-52.00,9.00,661.00,1.00,0.00,740.00,14,147.00,0.00,2.44,0.00,0.00,0.00,0,,,100,100,0,2,0,0,0,1,0,,,,,0.0,0.0,0
51.519487,5.858144,14.70,0.00,0.10,0.27,14.70,14.70,3.20,0.31,9300,2020-09-29 13:43:57.825,2020-09-29 15:43:57.825,18,0,0,16.531,51.519486,5.858140,0.00,0.10,0.00,5.50,0.40,63.70,0,1,0,91,100,-6840,3176,16531,3031.50,11,WP,1,0,0,0,0,0,0,1601387037824,4120,4092,4088,4104,0,0,27,,,,,,,0,0,0,-55.00,4.00,637.00,1.00,0.00,696.00,14,147.00,1.00,2.68,0.00,1.00,0.00,0,,,100,100,0,2,0,0,0,1,0,,,,,0.0,0.0,0
51.519487,5.858144,14.70,0.00,0.00,0.28,14.70,14.70,3.20,0.31,9416,2020-09-29 13:43:57.941,2020-09-29 15:43:57.941,18,0,0,16.531,51.519486,5.858140,0.00,0.00,0.00,5.60,0.10,62.20,0,1,0,91,100,-6840,3176,16531,3031.50,11,WP,1,0,0,0,0,0,0,1601387037940,4120,4092,4088,4104,0,0,27,,,,,,,0,0,0,-56.00,1.00,622.00,1.00,0.00,667.00,14,147.00,0.00,2.76,0.00,0.00,0.00,0,,,100,100,0,2,0,0,0,1,0,,,,,0.0,0.0,0
51.519487,5.858144,14.70,0.00,0.00,0.32,14.70,14.70,3.20,0.32,9504,2020-09-29 13:43:58.029,2020-09-29 15:43:58.029,18,0,0,16.531,51.519486,5.858140,0.00,0.00,0.00,5.80,0.00,61.50,0,1,0,91,100,-6840,3176,16531,3031.50,11,WP,1,0,0,0,0,0,0,1601387038028,4120,4092,4088,4104,0,0,27,,,,,,,0,0,0,-58.00,0.00,615.00,1.00,0.00,649.00,14,147.00,0.00,3.21,0.00,0.00,0.00,0,,,100,100,0,2,0,0,0,1,0,,,,,0.0,0.0,0
51.519487,5.858144,14.70,0.00,0.00,0.33,14.70,14.70,3.20,0.33,9604,2020-09-29 13:43:58.128,2020-09-29 15:43:58.128,18,0,0,16.497,51.519486,5.858140,0.00,0.00,0.00,5.80,0.00,61.20,0,1,0,91,100,-6548,3172,16497,3031.50,11,WP,1,0,0,0,0,0,0,1601387038128,4120,4092,4088,4104,0,0,27,,,,,,,0,0,0,-58.00,0.00,612.00,1.00,0.00,637.00,14,147.00,0.00,3.29,0.00,0.00,0.00,0,,,100,100,0,2,0,0,0,1,0,,,,,0.0,0.0,0
51.519487,5.858145,14.70,0.00,0.00,0.36,14.70,14.70,3.20,0.36,9704,2020-09-29 13:43:58.229,2020-09-29 15:43:58.229,18,0,0,16.497,51.519486,5.858140,0.00,0.00,0.00,5.80,-0.10,61.00,0,1,0,91,100,-6548,3172,16497,3031.50,11,WP,1,0,0,0,0,0,0,1601387038228,4120,4092,4088,4104,0,0,27,,,,,,,0,0,0,-58.00,-1.00,610.00,1.00,0.00,631.00,14,147.00,0.00,3.60,0.00,0.00,0.00,0,,,100,100,0,2,0,0,0,1,0,,,,,0.0,0.0,0
51.519487,5.858145,14.60,0.00,0.00,0.37,14.70,14.70,3.20,0.37,9803,2020-09-29 13:43:58.327,2020-09-29 15:43:58.327,18,0,0,16.497,51.519486,5.858140,0.00,0.00,0.00,5.90,0.00,60.90,0,1,0,91,100,-6548,3172,16497,3031.50,11,WP,1,0,0,0,0,0,0,1601387038327,4120,4092,4088,4104,0,0,27,,,,,,,0,0,0,-59.00,0.00,609.00,1.00,0.00,627.00,14,146.00,0.00,3.67,0.00,0.00,0.00,0,,,100,100,0,2,0,0,0,1,0,,,,,0.0,0.0,0
51.519487,5.858145,14.60,0.00,0.00,0.38,14.70,14.70,3.20,0.38,9902,2020-09-29 13:43:58.426,2020-09-29 15:43:58.427,18,0,0,16.497,51.519486,5.858140,0.00,0.00,0.00,5.20,0.00,61.00,0,1,0,91,100,-6548,3172,16497,3031.50,11,WP,1,0,0,0,0,0,0,1601387038426,4120,4092,4088,4104,0,0,27,,,,,,,0,0,0,-52.00,0.00,610.00,1.00,0.00,625.00,14,146.00,0.00,3.80,0.00,0.00,0.00,0,,,100,100,0,2,0,0,0,1,0,,,,,0.0,0.0,0
51.519487,5.858145,14.60,0.00,0.00,0.39,14.70,14.70,3.20,0.39,10001,2020-09-29 13:43:58.525,2020-09-29 15:43:58.525,18,0,0,16.497,51.519486,5.858140,0.00,0.00,0.00,-0.70,0.50,60.90,0,1,0,91,100,-6548,3172,16497,3031.50,11,WP,1,0,0,0,0,0,0,1601387038525,4120,4092,4088,4104,0,0,27,,,,,,,0,0,0,7.00,5.00,609.00,1.00,0.00,624.00,14,146.00,0.00,3.86,0.00,0.00,0.00,0,,,100,100,0,2,0,0,0,1,0,,,,,0.0,0.0,0
51.519488,5.858145,14.60,0.00,0.10,0.42,14.70,14.70,3.20,0.42,10101,2020-09-29 13:43:58.626,2020-09-29 15:43:58.626,18,0,0,16.497,51.519486,5.858140,0.00,0.10,0.00,-6.00,0.00,60.90,0,1,0,91,100,-6548,3172,16497,3031.50,11,WP,1,0,0,0,0,0,0,1601387038625,4120,4092,4088,4104,0,0,27,,,,,,,0,0,0,60.00,0.00,609.00,1.00,0.00,623.00,14,146.00,1.00,4.15,0.00,1.00,0.00,0,,,100,100,0,2,0,0,0,1,0,,,,,0.0,0.0,0
51.519488,5.858146,14.60,0.00,0.32,0.45,14.70,14.70,3.20,0.45,10203,2020-09-29 13:43:58.728,2020-09-29 15:43:58.728,18,0,0,16.497,51.519486,5.858140,0.10,0.30,0.00,-9.70,-0.40,61.00,0,1,0,91,100,-6548,3172,16497,3031.50,11,WP,1,0,0,0,0,0,0,1601387038727,4120,4092,4088,4104,0,0,27,,,,,,,0,0,0,97.00,-4.00,610.00,1.00,0.00,623.00,14,146.00,3.16,4.47,1.00,3.00,0.00,0,,,100,100,0,2,0,0,0,1,0,,,,,0.0,0.0,0
51.519488,5.858147,14.60,0.00,0.58,0.52,14.70,14.70,3.20,0.52,10300,2020-09-29 13:43:58.825,2020-09-29 15:43:58.825,18,0,0,16.497,51.519486,5.858140,0.30,0.50,0.00,-12.10,-0.30,61.00,0,1,0,91,100,-6548,3172,16497,3031.50,11,WP,1,0,0,0,0,0,0,1601387038824,4120,4092,4088,4104,0,0,27,,,,,,,0,0,0,121.00,-3.00,610.00,1.00,0.00,622.00,14,146.00,5.83,5.16,3.00,5.00,0.00,0,,,100,100,0,2,0,0,0,1,0,,,,,0.0,0.0,0
51.519489,5.858148,14.60,0.00,0.89,0.60,14.70,14.70,3.20,0.60,10403,2020-09-29 13:43:58.927,2020-09-29 15:43:58.927,18,0,0,16.497,51.519486,5.858140,0.40,0.80,0.00,-13.40,-0.10,60.90,0,1,0,91,100,-6548,3172,16497,3031.50,11,WP,1,0,0,0,0,0,0,1601387038927,4120,4092,4088,4104,0,0,27,,,,,,,0,0,0,134.00,-1.00,609.00,1.00,0.00,622.00,14,146.00,8.94,6.02,4.00,8.00,0.00,0,,,100,100,0,2,0,0,0,1,0,,,,,0.0,0.0,0
51.519489,5.858149,14.60,0.00,1.25,0.73,14.70,14.70,3.20,0.73,10504,2020-09-29 13:43:59.028,2020-09-29 15:43:59.028,18,0,0,16.497,51.519486,5.858140,0.60,1.10,0.00,-14.40,0.00,60.90,0,1,0,91,100,-6548,3172,16497,3031.50,11,WP,1,0,0,0,0,0,0,1601387039028,4120,4092,4088,4104,0,0,27,,,,,,,0,0,0,144.00,0.00,609.00,1.00,0.00,622.00,14,146.00,12.53,7.28,6.00,11.00,0.00,0,,,100,100,0,2,0,0,0,1,0,,,,,0.0,0.0,0
51.519490,5.858151,14.50,0.00,1.48,0.88,14.70,14.70,3.20,0.88,10602,2020-09-29 13:43:59.126,2020-09-29 15:43:59.126,18,0,0,16.497,51.519486,5.858140,0.70,1.30,0.00,-15.00,0.10,60.90,0,1,0,91,100,-6548,3172,16497,3031.50,11,WP,1,0,0,0,0,0,0,1601387039126,4120,4092,4088,4104,0,0,27,,,,,,,0,0,0,150.00,1.00,609.00,1.00,0.00,621.00,14,145.00,14.76,8.76,7.00,13.00,0.00,0,,,100,100,0,2,0,0,0,1,0,,,,,0.0,0.0,0
51.519490,5.858153,14.50,0.00,1.79,1.01,14.70,14.70,3.20,1.01,10704,2020-09-29 13:43:59.228,2020-09-29 15:43:59.228,18,0,0,16.497,51.519486,5.858140,0.80,1.60,0.00,-15.90,0.00,61.20,0,1,0,91,100,-6548,3172,16497,3031.50,11,WP,1,0,0,0,0,0,0,1601387039228,4120,4092,4088,4104,0,0,27,,,,,,,0,0,0,159.00,0.00,612.00,1.00,0.00,621.00,14,145.00,17.89,10.12,8.00,16.00,0.00,0,,,100,100,0,2,0,0,0,1,0,,,,,0.0,0.0,0
51.519491,5.858156,14.50,0.00,2.19,1.22,14.70,14.70,3.20,1.22,10801,2020-09-29 13:43:59.326,2020-09-29 15:43:59.326,18,0,0,16.497,51.519486,5.858140,0.90,2.00,0.00,-16.90,-0.70,64.90,0,1,0,91,100,-6548,3172,16497,3031.50,11,WP,1,0,0,0,0,0,0,1601387039325,4120,4092,4088,4104,0,0,27,,,,,,,0,0,0,169.00,-7.00,649.00,1.00,0.00,621.00,14,145.00,21.93,12.21,9.00,20.00,0.00,0,,,100,100,0,2,0,0,0,1,0,,,,,0.0,0.0,0
51.519490,5.858159,14.50,0.00,2.44,1.40,14.70,14.70,3.20,1.40,10902,2020-09-29 13:43:59.427,2020-09-29 15:43:59.427,18,0,0,16.497,51.519486,5.858140,0.80,2.30,0.00,-17.30,-3.00,64.40,0,1,0,91,100,-6548,3172,16497,3031.50,11,WP,1,0,0,0,0,0,0,1601387039426,4120,4092,4088,4104,0,0,27,,,,,,,0,0,0,173.00,-30.00,644.00,1.00,0.00,613.00,14,145.00,24.35,14.01,8.00,23.00,0.00,0,,,100,100,0,2,0,0,0,1,0,,,,,0.0,0.0,0
51.519491,5.858163,14.60,0.00,2.72,1.67,14.70,14.70,3.20,1.67,11005,2020-09-29 13:43:59.529,2020-09-29 15:43:59.529,18,0,0,16.497,51.519486,5.858140,0.80,2.60,0.00,-17.40,-5.90,66.30,0,1,0,91,100,-6548,3172,16497,3031.50,11,WP,1,0,0,0,0,0,0,1601387039529,4120,4092,4088,4104,0,0,27,,,,,,,0,0,0,174.00,-59.00,663.00,1.00,0.00,595.00,14,146.00,27.20,16.74,8.00,26.00,0.00,0,,,100,100,0,2,0,0,0,1,0,,,,,0.0,0.0,0
51.519490,5.858167,14.60,0.00,3.01,1.93,14.70,14.70,3.20,1.93,11102,2020-09-29 13:43:59.627,2020-09-29 15:43:59.627,18,0,0,16.497,51.519486,5.858140,0.80,2.90,0.00,-17.00,-7.80,65.00,0,1,0,91,100,-6548,3172,16497,3031.50,11,WP,1,0,0,0,0,0,0,1601387039626,4120,4092,4088,4104,0,0,27,,,,,,,0,0,0,170.00,-78.00,650.00,1.00,0.00,567.00,14,146.00,30.08,19.32,8.00,29.00,0.00,0,,,100,100,0,2,0,0,0,1,0,,,,,0.0,0.0,0
51.519491,5.858172,14.60,0.00,3.32,2.26,14.70,14.70,3.32,2.26,11205,2020-09-29 13:43:59.730,2020-09-29 15:43:59.730,18,0,0,16.497,51.519486,5.858140,0.90,3.20,0.00,-16.50,-10.00,66.40,0,1,0,91,100,-6548,3172,16497,3031.50,11,WP,1,0,0,0,0,0,0,1601387039729,4120,4092,4088,4104,0,0,27,,,,,,,0,0,0,165.00,-100.00,664.00,1.00,0.00,543.00,14,146.00,33.24,22.64,9.00,32.00,0.00,0,,,100,100,0,2,0,0,0,1,0,,,,,0.0,0.0,0
51.519490,5.858177,14.60,0.00,3.54,2.59,14.70,14.70,3.54,2.59,11305,2020-09-29 13:43:59.830,2020-09-29 15:43:59.830,18,0,0,16.497,51.519486,5.858140,1.00,3.40,0.00,-16.40,-11.70,65.20,0,1,0,91,100,-6548,3172,16497,3031.50,11,WP,1,0,0,0,0,0,0,1601387039829,4120,4092,4088,4104,0,0,27,,,,,,,0,0,0,164.00,-117.00,652.00,1.00,0.00,519.00,14,146.00,35.44,25.92,10.00,34.00,0.00,0,,,100,100,0,2,0,0,0,1,0,,,,,0.0,0.0,0
51.519491,5.858183,14.60,0.00,3.76,2.98,14.70,14.70,3.76,2.98,11405,2020-09-29 13:43:59.930,2020-09-29 15:43:59.930,18,0,0,16.497,51.519486,5.858140,1.10,3.60,0.00,-16.50,-13.60,66.20,0,1,0,91,100,-6548,3172,16497,3031.50,11,WP,1,0,0,0,0,0,0,1601387039929,4120,4092,4088,4104,0,0,27,,,,,,,0,0,0,165.00,-136.00,662.00,1.00,0.00,500.00,14,146.00,37.64,29.76,11.00,36.00,0.00,0,,,100,100,0,2,0,0,0,1,0,,,,,0.0,0.0,0
51.519490,5.858189,14.60,0.00,4.08,3.40,14.70,14.70,4.08,3.40,11505,2020-09-29 13:44:00.030,2020-09-29 15:44:00.030,18,0,0,16.497,51.519486,5.858140,1.20,3.90,0.00,-16.30,-14.40,65.20,0,1,0,91,100,-6548,3172,16497,3031.50,11,WP,1,0,0,0,0,0,0,1601387040029,4120,4092,4088,4104,0,0,27,,,,,,,0,0,0,163.00,-144.00,652.00,1.00,0.00,481.00,14,146.00,40.80,34.04,12.00,39.00,0.00,0,,,100,100,0,2,0,0,0,1,0,,,,,0.0,0.0,0
51.519492,5.858195,14.60,0.00,4.37,3.84,14.70,14.70,4.37,3.84,11605,2020-09-29 13:44:00.129,2020-09-29 15:44:00.129,18,0,0,16.428,51.519486,5.858140,1.50,4.10,0.00,-16.50,-15.20,65.70,0,1,0,91,100,-7170,3168,16428,3031.50,11,WP,1,0,0,0,0,0,0,1601387040129,4120,4092,4088,4104,0,0,27,,,,,,,0,0,0,165.00,-152.00,657.00,1.00,0.00,466.00,14,146.00,43.66,38.37,15.00,41.00,0.00,0,,,100,100,0,2,0,0,0,1,0,,,,,0.0,0.0,0
51.519492,5.858201,14.60,0.00,4.62,4.28,14.70,14.70,4.62,4.28,11704,2020-09-29 13:44:00.228,2020-09-29 15:44:00.228,18,0,0,16.428,51.519486,5.858140,1.70,4.30,0.00,-16.80,-15.20,67.10,0,1,0,91,100,-7170,3168,16428,3031.50,11,WP,1,0,0,0,0,0,0,1601387040228,4120,4092,4088,4104,0,0,27,,,,,,,0,0,0,168.00,-152.00,671.00,1.00,0.00,452.00,14,146.00,46.24,42.83,17.00,43.00,0.00,0,,,100,100,0,2,0,0,0,1,0,,,,,0.0,0.0,0
51.519493,5.858208,14.60,0.00,5.06,4.77,14.70,14.70,5.06,4.77,11805,2020-09-29 13:44:00.330,2020-09-29 15:44:00.330,18,0,0,16.428,51.519486,5.858140,2.10,4.60,0.00,-16.70,-15.50,66.50,0,1,0,91,100,-7170,3168,16428,3031.50,11,WP,1,0,0,0,0,0,0,1601387040329,4120,4092,4088,4104,0,0,27,,,,,,,0,0,0,167.00,-155.00,665.00,1.00,0.00,442.00,14,146.00,50.57,47.68,21.00,46.00,0.00,0,,,100,100,0,2,0,0,0,1,0,,,,,0.0,0.0,0
51.519494,5.858216,14.60,0.00,5.37,5.31,14.70,14.70,5.37,5.31,11906,2020-09-29 13:44:00.430,2020-09-29 15:44:00.430,18,0,0,16.428,51.519486,5.858140,2.40,4.80,0.00,-16.50,-15.50,65.10,0,1,0,91,100,-7170,3168,16428,3031.50,11,WP,1,0,0,0,0,0,0,1601387040430,4120,4092,4088,4104,0,0,27,,,,,,,0,0,0,165.00,-155.00,651.00,1.00,0.00,432.00,14,146.00,53.67,53.12,24.00,48.00,0.00,0,,,100,100,0,2,0,0,0,1,0,,,,,0.0,0.0,0
51.519496,5.858223,14.60,0.00,5.59,5.84,14.70,14.70,5.59,5.84,12027,2020-09-29 13:44:00.552,2020-09-29 15:44:00.552,18,0,0,16.428,51.519486,5.858140,2.70,4.90,0.00,-16.40,-15.50,64.40,0,1,0,91,100,-7170,3168,16428,3031.50,11,WP,1,0,0,0,0,0,0,1601387040551,4120,4092,4088,4104,0,0,27,,,,,,,0,0,0,164.00,-155.00,644.00,1.00,0.00,425.00,14,146.00,55.95,58.43,27.00,49.00,0.00,0,,,100,100,0,2,0,0,0,1,0,,,,,0.0,0.0,0
51.519497,5.858231,14.60,0.00,5.91,6.43,14.70,14.70,5.91,6.43,12103,2020-09-29 13:44:00.628,2020-09-29 15:44:00.628,18,0,0,16.428,51.519486,5.858140,2.80,5.20,0.00,-17.10,-14.90,65.20,0,1,0,91,100,-7170,3168,16428,3031.50,11,WP,1,0,0,0,0,0,0,1601387040627,4120,4092,4088,4104,0,0,27,,,,,,,0,0,0,171.00,-149.00,652.00,1.00,0.00,418.00,14,146.00,59.06,64.28,28.00,52.00,0.00,0,,,100,100,0,2,0,0,0,1,0,,,,,0.0,0.0,0
51.519500,5.858239,14.60,0.00,6.23,7.01,14.70,14.70,6.23,7.01,12203,2020-09-29 13:44:00.728,2020-09-29 15:44:00.728,18,0,0,16.428,51.519486,5.858140,3.10,5.40,0.00,-17.60,-15.00,64.60,0,1,0,91,100,-7170,3168,16428,3031.50,11,WP,1,0,0,0,0,0,0,1601387040727,4120,4092,4088,4104,0,0,27,,,,,,,0,0,0,176.00,-150.00,646.00,1.00,0.00,412.00,14,146.00,62.27,70.07,31.00,54.00,0.00,0,,,100,100,0,2,0,0,0,1,0,,,,,0.0,0.0,0
51.519502,5.858249,14.60,0.00,6.47,7.72,14.70,14.70,6.47,7.72,12304,2020-09-29 13:44:00.828,2020-09-29 15:44:00.828,18,0,0,16.428,51.519486,5.858140,3.40,5.50,0.00,-18.10,-14.30,63.90,0,1,0,91,100,-7170,3168,16428,3031.50,11,WP,1,0,0,0,0,0,0,1601387040828,4120,4092,4088,4104,0,0,27,,,,,,,0,0,0,181.00,-143.00,639.00,1.00,0.00,407.00,14,146.00,64.66,77.24,34.00,55.00,0.00,0,,,100,100,0,2,0,0,0,1,0,,,,,0.0,0.0,0
51.519505,5.858257,14.60,0.00,6.80,8.36,14.70,14.70,6.80,8.36,12402,2020-09-29 13:44:00.927,2020-09-29 15:44:00.927,18,0,0,16.428,51.519486,5.858140,3.70,5.70,0.00,-18.50,-13.60,63.60,0,1,0,91,100,-7170,3168,16428,3031.50,11,WP,1,0,0,0,0,0,0,1601387040926,4120,4092,4088,4104,0,0,27,,,,,,,0,0,0,185.00,-136.00,636.00,1.00,0.00,403.00,14,146.00,67.96,83.60,37.00,57.00,0.00,0,,,100,100,0,2,0,0,0,1,0,,,,,0.0,0.0,0
51.519508,5.858267,14.60,0.00,7.13,9.09,14.70,14.70,7.13,9.09,12504,2020-09-29 13:44:01.029,2020-09-29 15:44:01.029,18,0,0,16.428,51.519486,5.858140,4.00,5.90,0.00,-19.10,-12.30,63.30,0,1,0,91,100,-7170,3168,16428,3031.50,11,WP,1,0,0,0,0,0,0,1601387041028,4120,4092,4088,4104,0,0,27,,,,,,,0,0,0,191.00,-123.00,633.00,1.00,0.00,399.00,14,146.00,71.28,90.92,40.00,59.00,0.00,0,,,100,100,0,2,0,0,0,1,0,,,,,0.0,0.0,0
51.519511,5.858275,14.60,0.00,7.32,9.79,14.70,14.70,7.32,9.79,12605,2020-09-29 13:44:01.129,2020-09-29 15:44:01.129,18,0,0,16.428,51.519486,5.858140,4.20,6.00,0.00,-19.70,-11.20,63.20,0,1,0,91,100,-7170,3168,16428,3031.50,11,WP,1,0,0,0,0,0,0,1601387041129,4120,4092,4088,4104,0,0,27,,,,,,,0,0,0,197.00,-112.00,632.00,1.00,0.00,396.00,14,146.00,73.24,97.85,42.00,60.00,0.00,0,,,100,100,0,2,0,0,0,1,0,,,,,0.0,0.0,0
51.519514,5.858286,14.60,0.00,7.66,10.58,14.70,14.70,7.66,10.58,12704,2020-09-29 13:44:01.229,2020-09-29 15:44:01.229,18,0,0,16.428,51.519486,5.858140,4.50,6.20,0.00,-20.70,-10.00,63.00,0,1,0,91,100,-7170,3168,16428,3031.50,11,WP,1,0,0,0,0,0,0,1601387041228,4120,4092,4088,4104,0,0,27,,,,,,,0,0,0,207.00,-100.00,630.00,1.00,0.00,393.00,14,146.00,76.61,105.76,45.00,62.00,0.00,0,,,100,100,0,2,0,0,0,1,0,,,,,0.0,0.0,0
51.519518,5.858295,14.60,0.00,7.94,11.33,14.70,14.70,7.94,11.33,12804,2020-09-29 13:44:01.329,2020-09-29 15:44:01.329,18,0,0,16.428,51.519486,5.858140,4.70,6.40,0.00,-21.80,-8.50,62.80,0,1,0,91,100,-7170,3168,16428,3031.50,11,WP,1,0,0,0,0,0,0,1601387041328,4120,4092,4088,4104,0,0,27,,,,,,,0,0,0,218.00,-85.00,628.00,1.00,0.00,391.00,14,146.00,79.40,113.30,47.00,64.00,0.00,0,,,100,100,0,2,0,0,0,1,0,,,,,0.0,0.0,0
51.519522,5.858306,14.60,0.00,8.22,12.18,14.70,14.70,8.22,12.18,12903,2020-09-29 13:44:01.428,2020-09-29 15:44:01.428,18,0,0,16.428,51.519486,5.858140,4.90,6.60,0.00,-22.50,-7.10,62.50,0,1,0,91,100,-7170,3168,16428,3031.50,11,WP,1,0,0,0,0,0,0,1601387041427,4120,4092,4088,4104,0,0,27,,,,,,,0,0,0,225.00,-71.00,625.00,1.00,0.00,389.00,14,146.00,82.20,121.78,49.00,66.00,0.00,0,,,100,100,0,2,0,0,0,1,0,,,,,0.0,0.0,0
51.519526,5.858316,14.60,0.00,8.50,13.00,14.70,14.70,8.50,13.00,13005,2020-09-29 13:44:01.530,2020-09-29 15:44:01.530,18,0,0,16.428,51.519486,5.858140,5.10,6.80,0.00,-23.10,-6.30,62.60,0,1,0,91,100,-7170,3168,16428,3031.50,11,WP,1,0,0,0,0,0,0,1601387041529,4120,4092,4088,4104,0,0,27,,,,,,,0,0,0,231.00,-63.00,626.00,1.00,0.00,387.00,14,146.00,85.00,129.99,51.00,68.00,0.00,0,,,100,100,0,2,0,0,0,1,0,,,,,0.0,0.0,0
51.519531,5.858327,14.60,0.00,8.86,13.91,14.70,14.70,8.86,13.91,13154,2020-09-29 13:44:01.678,2020-09-29 15:44:01.678,18,0,0,16.428,51.519486,5.858140,5.30,7.10,0.00,-23.50,-5.40,62.30,0,1,0,91,100,-7170,3168,16428,3031.50,11,WP,1,0,0,0,0,0,0,1601387041678,4120,4092,4088,4104,0,0,27,,,,,,,0,0,0,235.00,-54.00,623.00,1.00,0.00,386.00,14,146.00,88.60,139.10,53.00,71.00,0.00,0,,,100,100,0,2,0,0,0,1,0,,,,,0.0,0.0,0
51.519535,5.858339,14.60,0.00,9.08,14.80,14.70,14.70,9.08,14.80,13203,2020-09-29 13:44:01.728,2020-09-29 15:44:01.728,18,0,0,16.428,51.519486,5.858140,5.40,7.30,0.00,-23.50,-4.70,62.10,0,1,0,91,100,-7170,3168,16428,3031.50,11,WP,1,0,0,0,0,0,0,1601387041727,4120,4092,4088,4104,0,0,27,,,,,,,0,0,0,235.00,-47.00,621.00,1.00,0.00,384.00,14,146.00,90.80,147.99,54.00,73.00,0.00,0,,,100,100,0,2,0,0,0,1,0,,,,,0.0,0.0,0
51.519540,5.858350,14.60,0.00,9.44,15.77,14.70,14.70,9.44,15.77,13305,2020-09-29 13:44:01.829,2020-09-29 15:44:01.829,18,0,0,16.428,51.519486,5.858140,5.60,7.60,0.00,-23.50,-4.10,62.10,0,1,0,91,100,-7170,3168,16428,3031.50,11,WP,1,0,0,0,0,0,0,1601387041829,4120,4092,4088,4104,0,0,27,,,,,,,0,0,0,235.00,-41.00,621.00,1.00,0.00,383.00,14,146.00,94.40,157.69,56.00,76.00,0.00,0,,,100,100,0,2,0,0,0,1,0,,,,,0.0,0.0,0
51.519544,5.858362,14.60,0.00,9.66,16.73,14.70,14.70,9.66,16.73,13455,2020-09-29 13:44:01.979,2020-09-29 15:44:01.979,18,0,0,16.428,51.519486,5.858140,5.70,7.80,0.00,-23.80,-3.90,63.60,0,1,0,91,100,-7170,3168,16428,3031.50,11,WP,1,0,0,0,0,0,0,1601387041979,4120,4092,4088,4104,0,0,27,,,,,,,0,0,0,238.00,-39.00,636.00,1.00,0.00,382.00,14,146.00,96.61,167.25,57.00,78.00,0.00,0,,,100,100,0,2,0,0,0,1,0,,,,,0.0,0.0,0
51.519550,5.858375,14.60,0.00,10.01,17.75,14.70,14.70,10.01,17.75,13504,2020-09-29 13:44:02.029,2020-09-29 15:44:02.029,18,0,0,16.428,51.519486,5.858140,5.60,8.30,0.00,-23.80,-3.80,62.90,0,1,0,91,100,-7170,3168,16428,3031.50,11,WP,1,0,0,0,0,0,0,1601387042028,4120,4092,4088,4104,0,0,27,,,,,,,0,0,0,238.00,-38.00,629.00,1.00,0.00,381.00,14,146.00,100.12,177.45,56.00,83.00,0.00,0,,,100,100,0,2,0,0,0,1,0,,,,,0.0,0.0,0
51.519554,5.858387,14.60,0.00,10.23,18.76,14.70,14.70,10.23,18.76,13604,2020-09-29 13:44:02.129,2020-09-29 15:44:02.129,18,0,0,16.400,51.519486,5.858140,5.70,8.50,0.00,-23.60,-4.30,62.70,0,1,0,91,100,-7712,3164,16400,3031.50,11,WP,1,0,0,0,0,0,0,1601387042128,4120,4092,4088,4104,0,0,27,,,,,,,0,0,0,236.00,-43.00,627.00,1.00,0.00,380.00,14,146.00,102.34,187.65,57.00,85.00,0.00,0,,,100,100,0,2,0,0,0,1,0,,,,,0.0,0.0,0
51.519560,5.858401,14.60,0.00,10.54,19.85,14.70,14.70,10.54,19.85,13705,2020-09-29 13:44:02.230,2020-09-29 15:44:02.230,18,0,0,16.400,51.519486,5.858140,5.80,8.80,0.00,-23.10,-4.80,62.40,0,1,0,91,100,-7712,3164,16400,3031.50,11,WP,1,0,0,0,0,0,0,1601387042229,4120,4092,4088,4104,0,0,27,,,,,,,0,0,0,231.00,-48.00,624.00,1.00,0.00,379.00,14,146.00,105.39,198.53,58.00,88.00,0.00,0,,,100,100,0,2,0,0,0,1,0,,,,,0.0,0.0,0
51.519565,5.858414,14.60,0.00,10.76,20.93,14.70,14.70,10.76,20.93,13805,2020-09-29 13:44:02.329,2020-09-29 15:44:02.329,18,0,0,16.400,51.519486,5.858140,5.90,9.00,0.00,-23.50,-4.90,62.20,0,1,0,91,100,-7712,3164,16400,3031.50,11,WP,1,0,0,0,0,0,0,1601387042329,4120,4092,4088,4104,0,0,27,,,,,,,0,0,0,235.00,-49.00,622.00,1.00,0.00,379.00,14,146.00,107.62,209.33,59.00,90.00,0.00,0,,,100,100,0,2,0,0,0,1,0,,,,,0.0,0.0,0
51.519570,5.858428,14.60,0.00,11.07,22.05,14.70,14.70,11.07,22.05,13905,2020-09-29 13:44:02.430,2020-09-29 15:44:02.430,18,0,0,16.400,51.519486,5.858140,6.00,9.30,0.00,-23.40,-4.80,62.10,0,1,0,91,100,-7712,3164,16400,3031.50,11,WP,1,0,0,0,0,0,0,1601387042429,4120,4092,4088,4104,0,0,27,,,,,,,0,0,0,234.00,-48.00,621.00,1.00,0.00,378.00,14,146.00,110.68,220.55,60.00,93.00,0.00,0,,,100,100,0,2,0,0,0,1,0,,,,,0.0,0.0,0
51.519576,5.858442,14.60,0.00,11.29,23.19,14.70,14.70,11.29,23.19,14005,2020-09-29 13:44:02.530,2020-09-29 15:44:02.530,18,0,0,16.400,51.519486,5.858140,6.10,9.50,0.00,-23.60,-4.30,61.90,0,1,0,91,100,-7712,3164,16400,3031.50,11,WP,1,0,0,0,0,0,0,1601387042529,4120,4092,4088,4104,0,0,27,,,,,,,0,0,0,236.00,-43.00,619.00,1.00,0.00,378.00,14,146.00,112.90,231.88,61.00,95.00,0.00,0,,,100,100,0,2,0,0,0,1,0,,,,,0.0,0.0,0
51.519582,5.858457,14.60,0.00,11.51,24.45,14.70,14.70,11.51,24.45,14104,2020-09-29 13:44:02.628,2020-09-29 15:44:02.629,18,0,0,16.400,51.519486,5.858140,6.20,9.70,0.00,-23.80,-4.10,61.80,0,1,0,91,100,-7712,3164,16400,3031.50,11,WP,1,0,0,0,0,0,0,1601387042628,4120,4092,4088,4104,0,0,27,,,,,,,0,0,0,238.00,-41.00,618.00,1.00,0.00,377.00,14,146.00,115.12,244.49,62.00,97.00,0.00,0,,,100,100,0,2,0,0,0,1,0,,,,,0.0,0.0,0
51.519587,5.858472,14.60,0.00,11.73,25.64,14.70,14.70,11.73,25.64,14202,2020-09-29 13:44:02.726,2020-09-29 15:44:02.726,18,0,0,16.400,51.519486,5.858140,6.30,9.90,0.00,-23.80,-4.50,61.70,0,1,0,91,100,-7712,3164,16400,3031.50,11,WP,1,0,0,0,0,0,0,1601387042726,4120,4092,4088,4104,0,0,27,,,,,,,0,0,0,238.00,-45.00,617.00,1.00,0.00,377.00,14,146.00,117.35,256.43,63.00,99.00,0.00,0,,,100,100,0,2,0,0,0,1,0,,,,,0.0,0.0,0
