,time(millisecond),datetime(utc),latitude,longitude,height_above_takeoff(feet),height_above_ground_at_drone_location(feet),ground_elevation_at_drone_location(feet),altitude_above_seaLevel(feet),height_sonar(feet),speed(mph),distance(feet),satellites,gpslevel,voltage(v),max_altitude(feet),max_ascent(feet),max_speed(mph),max_distance(feet), xSpeed(mph), ySpeed(mph), zSpeed(mph), compass_heading(degrees), pitch(degrees), roll(degrees),isPhoto,isVideo,rc_elevator,rc_aileron,rc_throttle,rc_rudder,gimbal_heading(degrees),gimbal_pitch(degrees),battery_percent,voltageCell1,voltageCell2,voltageCell3,voltageCell4,voltageCell5,voltageCell6,current(A),battery_temperature(f),altitude(feet),ascent(feet),flycStateRaw,flycState,message,datetime(local),altitude(m)
0,31,2020-09-29 11:58:31,51.519690387728204,5.85848809558422,0.0,0.0,82.41470079999999,98.542162930252,0,0.0,0.0,0,0,0,98.542162930252,0.0,0.0,0.0,0.0,0.0,0.0,0.0,0.0,0.0,0,0,1024,1024,1024,1024,0,0,95,,,,,,,0,32,98.542162930252,0.0,6,P-GPS,,2020-09-29 13:58:31,30.035651261140814
1,84,2020-09-29 11:58:31,51.51969818844339,5.858490065011389,0.0,0.098425200000004,82.3162756,98.542162930252,0,0.0,2.88099090584,0,0,0,98.542162930252,0.0,0.0,2.88099090584,0.0,0.0,0.0,0.0,0.0,0.0,0,0,1024,1024,1024,1024,0,0,95,,,,,,,0,32,98.542162930252,0.0,6,P-GPS,,2020-09-29 13:58:31,30.035651261140814
2,91,2020-09-29 11:58:31,51.51969818844339,5.858490065011389,0.0,0.098425200000004,82.3162756,98.542162930252,0,0.0,2.88099090584,13,0,0,98.542162930252,0.0,0.0,2.88099090584,0.0,0.0,0.0,0.0,0.0,0.0,0,0,1024,1024,1024,1024,0,0,95,,,,,,,0,32,98.542162930252,0.0,6,P-GPS,,2020-09-29 13:58:31,30.035651261140814
3,285,2020-09-29 11:58:31,51.51969818844339,5.858490065011389,-1.59448824,-1.49606304,82.3162756,96.947674690252,0,1.92701643688,2.88099090584,13,0,0,98.542162930252,0.0,1.92701643688,2.88099090584,0.223694,0.0,0.0,35.0,-12.0,-4.3,0,0,1024,1024,1024,1024,0,0,95,,,,,,,0,32,96.947674690252,-1.59448824,6,P-GPS,,2020-09-29 13:58:31,29.549651245588812
4,348,2020-09-29 11:58:31,51.51969818844339,5.858490065011389,-1.59448824,-1.49606304,82.3162756,96.947674690252,0,1.92701643688,2.88099090584,13,0,0,98.542162930252,0.0,1.92701643688,2.88099090584,0.223694,0.0,0.0,35.0,-12.0,-4.3,0,0,1024,1024,1024,1024,0,0,94,,,,,,,0,32,96.947674690252,-1.59448824,6,P-GPS,,2020-09-29 13:58:31,29.549651245588812
5,365,2020-09-29 11:58:31,51.51969818844339,5.858490065011389,-1.59448824,-1.49606304,82.3162756,96.947674690252,0,1.92701643688,2.88099090584,13,0,0,98.542162930252,0.0,1.92701643688,2.88099090584,0.223694,0.0,0.0,35.0,-12.0,-4.3,0,0,1024,1024,1024,1024,0,0,94,,,,,,,0,32,96.947674690252,-1.59448824,6,P-GPS,,2020-09-29 13:58:31,29.549651245588812
6,484,2020-09-29 11:58:31,51.51969818844339,5.858490065011389,-1.51574808,-1.41732288,82.3162756,97.026414850252,0,2.08527994188,2.88099090584,13,0,0,98.542162930252,0.0,2.08527994188,2.88099090584,0.223694,0.0,0.0,34.3,-8.8,-5.6,0,0,1024,1024,1024,1024,0,0,94,,,,,,,0,32,97.026414850252,-1.51574808,6,P-GPS,,2020-09-29 13:58:31,29.57365124635681
14,1462,2020-09-29 11:58:32,51.5197047827471,5.85849256273662,-0.20669292,-0.0098425199999925,82.2178504,98.335470010252,0,0.6122035022600001,5.3490487276,14,0,0,98.542162930252,0.0,2.585678946,5.3490487276,0.0,0.0,0.0,45.9,-12.9,-11.2,0,0,1024,1024,1024,1024,0,0,93,,,,,,,0,32,98.335470010252,-0.20669292,6,P-GPS,,2020-09-29 13:58:32,29.97265125912481
13,1424,2020-09-29 11:58:32,51.5197047827471,5.85849256273662,-0.20669292,-0.0098425199999925,82.2178504,98.335470010252,0,0.6122035022600001,5.3490487276,14,0,0,98.542162930252,0.0,2.585678946,5.3490487276,0.0,0.0,0.0,45.9,-12.9,-11.2,0,0,1024,1024,1024,1024,0,0,93,,,,,,,0,32,98.335470010252,-0.20669292,6,P-GPS,,2020-09-29 13:58:32,29.97265125912481
12,1393,2020-09-29 11:58:32,51.5197047827471,5.85849256273662,-0.20669292,-0.0098425199999925,82.2178504,98.335470010252,0,0.6122035022600001,5.3490487276,14,0,0,98.542162930252,0.0,2.585678946,5.3490487276,0.0,0.0,0.0,45.9,-12.9,-11.2,0,0,1024,1024,1024,1024,0,0,93,,,,,,,0,32,98.335470010252,-0.20669292,6,P-GPS,,2020-09-29 13:58:32,29.97265125912481
11,1285,2020-09-29 11:58:32,51.5197047827471,5.85849256273662,-0.20669292,-0.0098425199999925,82.2178504,98.335470010252,0,0.6122035022600001,5.3490487276,14,0,0,98.542162930252,0.0,2.585678946,5.3490487276,0.0,0.0,0.0,45.9,-12.9,-11.2,0,0,1024,1024,1024,1024,0,0,94,,,,,,,0,32,98.335470010252,-0.20669292,6,P-GPS,,2020-09-29 13:58:32,29.97265125912481
15,1485,2020-09-29 11:58:32,51.5197047827471,5.85849256273662,-0.58398952,-0.38713911999999,82.2178504,97.958173410252,0,0.6905590365800001,5.3490487276,14,0,0,98.542162930252,0.0,2.585678946,5.3490487276,0.0,0.0,0.0,44.6,-10.8,-12.3,0,0,1024,1024,1024,1024,0,0,93,,,,,,,0,32,97.958173410252,-0.58398952,6,P-GPS,,2020-09-29 13:58:32,29.85765125544481
9,1086,2020-09-29 11:58:32,51.5197047827471,5.85849256273662,-1.24343836,-1.04658796,82.2178504,97.298724570252,0,1.9834477222599998,5.3490487276,13,0,0,98.542162930252,0.0,2.585678946,5.3490487276,0.223694,0.0,0.0,38.0,-6.9,-3.6,0,0,1024,1024,1024,1024,0,0,94,,,,,,,0,32,97.298724570252,-1.24343836,6,P-GPS,,2020-09-29 13:58:32,29.656651249012814
8,885,2020-09-29 11:58:32,51.51969818844339,5.858490065011389,-1.24343836,-1.14501316,82.3162756,97.298724570252,0,1.9834477222599998,2.88099090584,13,0,0,98.542162930252,0.0,2.585678946,2.88099090584,0.223694,0.0,0.0,38.0,-6.9,-3.6,0,0,1024,1024,1024,1024,0,0,94,,,,,,,0,32,97.298724570252,-1.24343836,6,P-GPS,,2020-09-29 13:58:32,29.656651249012814
7,685,2020-09-29 11:58:32,51.51969818844339,5.858490065011389,-1.4107611999999998,-1.3123360000000002,82.3162756,97.131401730252,0,2.585678946,2.88099090584,13,0,0,98.542162930252,0.0,2.585678946,2.88099090584,0.223694,0.0,0.0,35.7,-8.1,-1.6,0,0,1024,1024,1024,1024,0,0,94,,,,,,,0,32,97.131401730252,-1.4107611999999998,6,P-GPS,,2020-09-29 13:58:32,29.60565124738081
10,1087,2020-09-29 11:58:32,51.5197047827471,5.85849256273662,-1.24343836,-1.04658796,82.2178504,97.298724570252,0,1.9834477222599998,5.3490487276,14,0,0,98.542162930252,0.0,2.585678946,5.3490487276,0.223694,0.0,0.0,38.0,-6.9,-3.6,0,0,1024,1024,1024,1024,0,0,94,,,,,,,0,32,97.298724570252,-1.24343836,6,P-GPS,,2020-09-29 13:58:32,29.656651249012814
22,2493,2020-09-29 11:58:33,51.519706034356794,5.858483348406089,8.07742808,8.27427848,82.2178504,106.61959101024999,0,15.3068435544,5.8095146216,14,0,0,106.61959101024999,8.07742808,16.7997102022,5.8095146216,0.447388,-1.342164,-0.223694,273.9,14.7,-8.2,0,0,1024,1024,1024,1024,0,0,93,,,,,,,0,32,106.61959101024999,8.07742808,6,P-GPS,,2020-09-29 13:58:33,32.4976513399242
20,2288,2020-09-29 11:58:33,51.519706034356794,5.858483348406089,6.56168,6.758530400000001,82.2178504,105.10384293025,0,16.7997102022,5.8095146216,14,0,0,105.10384293025,6.56168,16.7997102022,5.8095146216,0.447388,-1.565858,-0.447388,286.5,-1.4,19.5,0,0,1024,1024,1024,1024,0,0,93,,,,,,,0,32,105.10384293025,6.56168,6,P-GPS,,2020-09-29 13:58:33,32.0356513251402
19,2093,2020-09-29 11:58:33,51.519706034356794,5.858483348406089,2.25065624,2.44750664,82.2178504,100.79281917025,0,1.8803605793,5.8095146216,14,0,0,100.79281917025,2.25065624,2.585678946,5.8095146216,0.0,-0.223694,0.0,39.2,-1.4,-15.1,0,0,1024,1024,1024,1024,0,0,93,,,,,,,0,32,100.79281917025,2.25065624,6,P-GPS,,2020-09-29 13:58:33,30.7216512830922
21,2488,2020-09-29 11:58:33,51.519706034356794,5.858483348406089,8.07742808,8.27427848,82.2178504,106.61959101024999,0,15.3068435544,5.8095146216,14,0,0,106.61959101024999,8.07742808,16.7997102022,5.8095146216,0.447388,-1.342164,-0.223694,273.9,14.7,-8.2,0,0,1024,1024,1024,1024,0,0,93,,,,,,,0,32,106.61959101024999,8.07742808,6,P-GPS,,2020-09-29 13:58:33,32.4976513399242
17,1886,2020-09-29 11:58:33,51.5197047827471,5.85849256273662,2.25065624,2.44750664,82.2178504,100.79281917025,0,1.8803605793,5.3490487276,14,0,0,100.79281917025,2.25065624,2.585678946,5.3490487276,0.0,-0.223694,0.0,39.2,-1.4,-15.1,0,0,1024,1024,1024,1024,0,0,93,,,,,,,0,32,100.79281917025,2.25065624,6,P-GPS,,2020-09-29 13:58:33,30.7216512830922
16,1686,2020-09-29 11:58:33,51.5197047827471,5.85849256273662,0.738189,0.93503940000001,82.2178504,99.280351930252,0,1.00388498544,5.3490487276,14,0,0,99.280351930252,0.738189,2.585678946,5.3490487276,0.0,0.0,0.0,42.4,-7.7,-15.6,0,0,1024,1024,1024,1024,0,0,93,,,,,,,0,32,99.280351930252,0.738189,6,P-GPS,,2020-09-29 13:58:33,30.26065126834081
18,2092,2020-09-29 11:58:33,51.519706034356794,5.858483348406089,2.25065624,2.44750664,82.2178504,100.79281917025,0,1.8803605793,5.8095146216,14,0,0,100.79281917025,2.25065624,2.585678946,5.8095146216,0.0,-0.223694,0.0,39.2,-1.4,-15.1,0,0,1024,1024,1024,1024,0,0,93,,,,,,,0,32,100.79281917025,2.25065624,6,P-GPS,,2020-09-29 13:58:33,30.7216512830922
23,2691,2020-09-29 11:58:34,51.519706034356794,5.858483348406089,8.46128636,8.65813676,82.2178504,107.00344929024999,0,17.3576254076,5.8095146216,14,0,0,107.00344929024999,8.46128636,17.3576254076,5.8095146216,0.671082,-1.565858,-0.223694,263.5,13.7,-26.9,0,0,1024,1024,1024,1024,0,0,93,,,,,,,0,32,107.00344929024999,8.46128636,6,P-GPS,,2020-09-29 13:58:34,32.6146513436682
24,2767,2020-09-29 11:58:34,51.519706034356794,5.858483348406089,8.46128636,8.65813676,82.2178504,107.00344929024999,0,17.3576254076,5.8095146216,14,0,0,107.00344929024999,8.46128636,17.3576254076,5.8095146216,0.671082,-1.565858,-0.223694,263.5,13.7,-26.9,0,0,1024,1024,1024,1024,0,0,93,,,,,,,0,32,107.00344929024999,8.46128636,6,P-GPS,,2020-09-29 13:58:34,32.6146513436682
25,2892,2020-09-29 11:58:34,51.519706034356794,5.858483348406089,10.52493472,10.72178512,82.2178504,109.06709765024999,0,18.6998788852,5.8095146216,14,0,0,109.06709765024999,10.52493472,18.6998788852,5.8095146216,0.671082,-1.565858,-0.447388,260.8,18.0,-19.3,0,0,1024,1024,1024,1024,0,0,93,,,,,,,0,32,109.06709765024999,10.52493472,6,P-GPS,,2020-09-29 13:58:34,33.2436513637962
26,3093,2020-09-29 11:58:34,51.51973145360121,5.8583768696969605,10.52493472,10.91863552,82.021,109.06709765024999,0,18.6998788852,29.3616479212,14,0,0,109.06709765024999,10.52493472,18.6998788852,29.3616479212,0.671082,-1.565858,-0.447388,260.8,18.0,-19.3,0,0,1024,1024,1024,1024,0,0,93,,,,,,,0,32,109.06709765024999,10.52493472,6,P-GPS,,2020-09-29 13:58:34,33.2436513637962
27,3094,2020-09-29 11:58:34,51.51973145360121,5.8583768696969605,11.30905548,11.70275628,82.021,109.85121841025,0,19.5798910812,29.3616479212,14,0,0,109.85121841025,11.30905548,19.5798910812,29.3616479212,0.447388,-1.789552,-0.671082,261.0,28.1,-5.4,0,0,1024,1024,1024,1024,0,0,93,,,,,,,0,32,109.85121841025,11.30905548,6,P-GPS,,2020-09-29 13:58:34,33.4826513714442
28,3300,2020-09-29 11:58:34,51.51973145360121,5.8583768696969605,14.98687712,15.38057792,82.021,113.52904005024999,0,19.901719639,29.3616479212,14,0,0,113.52904005024999,14.98687712,19.901719639,29.3616479212,0.223694,-1.789552,-0.894776,261.0,29.5,-3.3,0,0,1024,1024,1024,1024,0,0,93,,,,,,,0,32,113.52904005024999,14.98687712,6,P-GPS,,2020-09-29 13:58:34,34.6036514073162
34,4106,2020-09-29 11:58:35,51.5197377991391,5.858278893618469,24.99343912,24.73097192,82.67716800000001,123.53560205024999,0,20.568104065,50.54626146,14,0,0,123.53560205024999,24.99343912,20.7107537288,50.54626146,0.223694,-1.342164,-1.565858,255.3,35.7,-4.0,0,0,1024,1024,1024,1024,0,0,93,,,,,,,0,32,123.53560205024999,24.99343912,6,P-GPS,,2020-09-29 13:58:35,37.6536515049162
35,4308,2020-09-29 11:58:35,51.5197377991391,5.858278893618469,30.65616896,30.39370176,82.67716800000001,129.19833189025,0,19.5599599458,50.54626146,14,0,0,129.19833189025,30.65616896,20.7107537288,50.54626146,0.0,-1.342164,-1.565858,258.3,36.1,0.8,0,0,1024,1024,1024,1024,0,0,93,,,,,,,0,32,129.19833189025,30.65616896,6,P-GPS,,2020-09-29 13:58:35,39.3796515601482
32,3904,2020-09-29 11:58:35,51.51973145360121,5.8583768696969605,24.99343912,25.38713992,82.021,123.53560205024999,0,20.568104065,29.3616479212,14,0,0,123.53560205024999,24.99343912,20.7107537288,29.3616479212,0.223694,-1.342164,-1.565858,255.3,35.7,-4.0,0,0,1024,1024,1024,1024,0,0,93,,,,,,,0,32,123.53560205024999,24.99343912,6,P-GPS,,2020-09-29 13:58:35,37.6536515049162
33,4104,2020-09-29 11:58:35,51.5197377991391,5.858278893618469,24.99343912,24.73097192,82.67716800000001,123.53560205024999,0,20.568104065,50.54626146,14,0,0,123.53560205024999,24.99343912,20.7107537288,50.54626146,0.223694,-1.342164,-1.565858,255.3,35.7,-4.0,0,0,1024,1024,1024,1024,0,0,93,,,,,,,0,32,123.53560205024999,24.99343912,6,P-GPS,,2020-09-29 13:58:35,37.6536515049162
30,3557,2020-09-29 11:58:35,51.51973145360121,5.8583768696969605,19.10761216,19.50131296,82.021,117.64977509025,0,20.7029691776,29.3616479212,14,0,0,117.64977509025,19.10761216,20.7029691776,29.3616479212,0.223694,-1.789552,-1.11847,259.0,33.4,-4.5,0,0,1024,1024,1024,1024,0,0,93,,,,,,,0,32,117.64977509025,19.10761216,6,P-GPS,,2020-09-29 13:58:35,35.859651447508206
29,3502,2020-09-29 11:58:35,51.51973145360121,5.8583768696969605,19.10761216,19.50131296,82.021,117.64977509025,0,20.7029691776,29.3616479212,14,0,0,117.64977509025,19.10761216,20.7029691776,29.3616479212,0.223694,-1.789552,-1.11847,259.0,33.4,-4.5,0,0,1024,1024,1024,1024,0,0,93,,,,,,,0,32,117.64977509025,19.10761216,6,P-GPS,,2020-09-29 13:58:35,35.859651447508206
31,3704,2020-09-29 11:58:35,51.51973145360121,5.8583768696969605,20.58070932,20.97441012,82.021,119.12287225025,0,20.7107537288,29.3616479212,14,0,0,119.12287225025,20.58070932,20.7107537288,29.3616479212,0.223694,-1.565858,-1.342164,256.7,36.0,-5.8,0,0,1024,1024,1024,1024,0,0,93,,,,,,,0,32,119.12287225025,20.58070932,6,P-GPS,,2020-09-29 13:58:35,36.3086514618762
42,5114,2020-09-29 11:58:36,51.519739414239105,5.85820299302429,49.27165512,48.12336112,83.5629948,147.81381805025,0,17.932541357,67.151905036,14,0,0,147.81381805025,49.27165512,20.7107537288,67.151905036,0.0,-1.11847,-1.342164,259.1,32.1,2.7,0,0,1024,1024,1024,1024,0,0,93,,,,,,,0,32,147.81381805025,49.27165512,6,P-GPS,,2020-09-29 13:58:36,45.0536517417162
36,4510,2020-09-29 11:58:36,51.5197377991391,5.858278893618469,36.2368778,35.974410600000006,82.67716800000001,134.77904073025,0,19.1940413006,50.54626146,14,0,0,134.77904073025,36.2368778,20.7107537288,50.54626146,0.0,-1.11847,-1.565858,258.3,33.6,2.0,0,0,1024,1024,1024,1024,0,0,93,,,,,,,0,32,134.77904073025,36.2368778,6,P-GPS,,2020-09-29 13:58:36,41.0806516145802
37,4633,2020-09-29 11:58:36,51.5197377991391,5.858278893618469,36.2368778,35.974410600000006,82.67716800000001,134.77904073025,0,19.1940413006,50.54626146,14,0,0,134.77904073025,36.2368778,20.7107537288,50.54626146,0.0,-1.11847,-1.565858,258.3,33.6,2.0,0,0,1024,1024,1024,1024,0,0,93,,,,,,,0,32,134.77904073025,36.2368778,6,P-GPS,,2020-09-29 13:58:36,41.0806516145802
38,4710,2020-09-29 11:58:36,51.5197377991391,5.858278893618469,40.64632676,40.38385956,82.67716800000001,139.18848969025,0,18.9507069674,50.54626146,14,0,0,139.18848969025,40.64632676,20.7107537288,50.54626146,0.0,-1.11847,-1.565858,258.5,34.2,1.9,0,0,1024,1024,1024,1024,0,0,93,,,,,,,0,32,139.18848969025,40.64632676,6,P-GPS,,2020-09-29 13:58:36,42.42465165758821
39,4910,2020-09-29 11:58:36,51.5197377991391,5.858278893618469,44.53084132,44.26837412,82.67716800000001,143.07300425025,0,18.425585302400002,50.54626146,14,0,0,143.07300425025,44.53084132,20.7107537288,50.54626146,0.0,-1.11847,-1.342164,258.7,33.2,2.2,0,0,1024,1024,1024,1024,0,0,93,,,,,,,0,32,143.07300425025,44.53084132,6,P-GPS,,2020-09-29 13:58:36,43.6086516954762
40,5110,2020-09-29 11:58:36,51.519739414239105,5.85820299302429,44.53084132,43.38254732,83.5629948,143.07300425025,0,18.425585302400002,67.151905036,14,0,0,143.07300425025,44.53084132,20.7107537288,67.151905036,0.0,-1.11847,-1.342164,258.7,33.2,2.2,0,0,1024,1024,1024,1024,0,0,93,,,,,,,0,32,143.07300425025,44.53084132,6,P-GPS,,2020-09-29 13:58:36,43.6086516954762
41,5112,2020-09-29 11:58:36,51.519739414239105,5.85820299302429,44.53084132,43.38254732,83.5629948,143.07300425025,0,18.425585302400002,67.151905036,14,0,0,143.07300425025,44.53084132,20.7107537288,67.151905036,0.0,-1.11847,-1.342164,258.7,33.2,2.2,0,0,1024,1024,1024,1024,0,0,93,,,,,,,0,32,143.07300425025,44.53084132,6,P-GPS,,2020-09-29 13:58:36,43.6086516954762
43,5310,2020-09-29 11:58:36,51.519739414239105,5.85820299302429,52.88385996,51.73556596,83.5629948,151.42602289025,0,17.4445305266,67.151905036,14,0,0,151.42602289025,52.88385996,20.7107537288,67.151905036,0.0,-1.11847,-1.342164,259.7,31.1,3.5,0,0,1024,1024,1024,1024,0,0,93,,,,,,,0,32,151.42602289025,52.88385996,6,P-GPS,,2020-09-29 13:58:36,46.15465177694821
49,6314,2020-09-29 11:58:37,51.5197402374654,5.8581268813080705,68.80249564,66.76837484,84.44882159999999,167.34465857025,0,16.6556065274,83.9977061,14,0,0,167.34465857025,68.80249564,20.7107537288,83.9977061,0.0,-1.342164,-1.11847,262.8,28.4,6.5,0,0,1024,1024,1024,1024,0,0,93,,,,,,,0,32,167.34465857025,68.80249564,6,P-GPS,,2020-09-29 13:58:37,51.0066519322122
47,5912,2020-09-29 11:58:37,51.519739414239105,5.85820299302429,62.44750856,61.29921456,83.5629948,160.98967149025,0,16.5783873586,67.151905036,14,0,0,160.98967149025,62.44750856,20.7107537288,67.151905036,0.0,-1.11847,-1.11847,261.6,29.0,5.4,0,0,1024,1024,1024,1024,0,0,93,,,,,,,0,32,160.98967149025,62.44750856,6,P-GPS,,2020-09-29 13:58:37,49.069651870228206
48,6113,2020-09-29 11:58:37,51.5197402374654,5.8581268813080705,62.44750856,60.41338776,84.44882159999999,160.98967149025,0,16.5783873586,83.9977061,14,0,0,160.98967149025,62.44750856,20.7107537288,83.9977061,0.0,-1.11847,-1.11847,261.6,29.0,5.4,0,0,1024,1024,1024,1024,0,0,93,,,,,,,0,32,160.98967149025,62.44750856,6,P-GPS,,2020-09-29 13:58:37,49.069651870228206
45,5701,2020-09-29 11:58:37,51.519739414239105,5.85820299302429,55.32808576,54.17979176,83.5629948,153.87024869025,0,17.2315514692,67.151905036,14,0,0,153.87024869025,55.32808576,20.7107537288,67.151905036,0.0,-1.11847,-1.342164,259.9,30.0,4.9,0,0,1024,1024,1024,1024,0,0,93,,,,,,,0,32,153.87024869025,55.32808576,6,P-GPS,,2020-09-29 13:58:37,46.899651800788206
44,5511,2020-09-29 11:58:37,51.519739414239105,5.85820299302429,55.32808576,54.17979176,83.5629948,153.87024869025,0,17.2315514692,67.151905036,14,0,0,153.87024869025,55.32808576,20.7107537288,67.151905036,0.0,-1.11847,-1.342164,259.9,30.0,4.9,0,0,1024,1024,1024,1024,0,0,93,,,,,,,0,32,153.87024869025,55.32808576,6,P-GPS,,2020-09-29 13:58:37,46.899651800788206
46,5719,2020-09-29 11:58:37,51.519739414239105,5.85820299302429,58.34317772,57.19488372,83.5629948,156.88534065025,0,16.861606332,67.151905036,14,0,0,156.88534065025,58.34317772,20.7107537288,67.151905036,0.0,-1.11847,-1.11847,260.8,29.5,5.2,0,0,1024,1024,1024,1024,0,0,93,,,,,,,0,32,156.88534065025,58.34317772,6,P-GPS,,2020-09-29 13:58:37,47.818651830196195
56,7322,2020-09-29 11:58:38,51.5197439480258,5.85804363078646,85.39042268,82.50328348,85.30184,183.93258561025002,0,16.971238761400002,102.77985893200001,15,0,0,183.93258561025002,85.39042268,20.7107537288,102.77985893200001,0.223694,-1.342164,-1.11847,268.4,29.5,6.2,0,0,1024,1024,1024,1024,0,0,92,,,,,,,0,32,183.93258561025002,85.39042268,6,P-GPS,,2020-09-29 13:58:38,56.06265209400421
55,7116,2020-09-29 11:58:38,51.5197439480258,5.85804363078646,78.83858520000001,75.95144599999999,85.30184,177.38074813025003,0,16.807807925,102.77985893200001,14,0,0,177.38074813025003,78.83858520000001,20.7107537288,102.77985893200001,0.0,-1.342164,-1.11847,266.1,29.3,6.8,0,0,1024,1024,1024,1024,0,0,92,,,,,,,0,32,177.38074813025003,78.83858520000001,6,P-GPS,,2020-09-29 13:58:38,54.06565203010021
54,6915,2020-09-29 11:58:38,51.5197402374654,5.8581268813080705,78.83858520000001,76.80446440000001,84.44882159999999,177.38074813025003,0,16.807807925,83.9977061,14,0,0,177.38074813025003,78.83858520000001,20.7107537288,83.9977061,0.0,-1.342164,-1.11847,266.1,29.3,6.8,0,0,1024,1024,1024,1024,0,0,92,,,,,,,0,32,177.38074813025003,78.83858520000001,6,P-GPS,,2020-09-29 13:58:38,54.06565203010021
50,6513,2020-09-29 11:58:38,51.5197402374654,5.8581268813080705,71.31233824,69.27821744,84.44882159999999,169.85450117025,0,16.5768886088,83.9977061,14,0,0,169.85450117025,71.31233824,20.7107537288,83.9977061,0.0,-1.342164,-1.11847,263.5,28.4,6.7,0,0,1024,1024,1024,1024,0,0,93,,,,,,,0,32,169.85450117025,71.31233824,6,P-GPS,,2020-09-29 13:58:38,51.771651956692196
52,6764,2020-09-29 11:58:38,51.5197402374654,5.8581268813080705,75.92519928,73.89107848,84.44882159999999,174.46736221025,0,16.8273587806,83.9977061,14,0,0,174.46736221025,75.92519928,20.7107537288,83.9977061,0.0,-1.342164,-1.11847,265.3,29.2,5.8,0,0,1024,1024,1024,1024,0,0,93,,,,,,,0,32,174.46736221025,75.92519928,6,P-GPS,,2020-09-29 13:58:38,53.1776520016842
51,6715,2020-09-29 11:58:38,51.5197402374654,5.8581268813080705,75.92519928,73.89107848,84.44882159999999,174.46736221025,0,16.8273587806,83.9977061,14,0,0,174.46736221025,75.92519928,20.7107537288,83.9977061,0.0,-1.342164,-1.11847,265.3,29.2,5.8,0,0,1024,1024,1024,1024,0,0,93,,,,,,,0,32,174.46736221025,75.92519928,6,P-GPS,,2020-09-29 13:58:38,53.1776520016842
53,6914,2020-09-29 11:58:38,51.5197402374654,5.8581268813080705,75.92519928,73.89107848,84.44882159999999,174.46736221025,0,16.8273587806,83.9977061,14,0,0,174.46736221025,75.92519928,20.7107537288,83.9977061,0.0,-1.342164,-1.11847,265.3,29.2,5.8,0,0,1024,1024,1024,1024,0,0,92,,,,,,,0,32,174.46736221025,75.92519928,6,P-GPS,,2020-09-29 13:58:38,53.1776520016842
63,8330,2020-09-29 11:58:39,51.51975037431729,5.85796555732399,101.22703736,98.33989816,85.30184,199.76920029025,0,17.1444002868,120.63156554,15,0,0,199.76920029025,101.22703736,20.7107537288,120.63156554,0.223694,-1.11847,-1.11847,274.0,30.5,4.9,0,0,1024,1024,1024,1024,0,0,92,,,,,,,0,32,199.76920029025,101.22703736,6,P-GPS,,2020-09-29 13:58:39,60.88965224846821
57,7522,2020-09-29 11:58:39,51.5197439480258,5.85804363078646,88.66142016,85.77428096,85.30184,187.20358309025002,0,16.800426023,102.77985893200001,15,0,0,187.20358309025002,88.66142016,20.7107537288,102.77985893200001,0.223694,-1.342164,-1.11847,269.9,28.4,5.9,0,0,1024,1024,1024,1024,0,0,92,,,,,,,0,32,187.20358309025002,88.66142016,6,P-GPS,,2020-09-29 13:58:39,57.05965212590821
58,7722,2020-09-29 11:58:39,51.5197439480258,5.85804363078646,91.00722076,88.12008156,85.30184,189.54938369025,0,16.797518001,102.77985893200001,15,0,0,189.54938369025,91.00722076,20.7107537288,102.77985893200001,0.223694,-1.342164,-1.11847,271.0,28.7,7.1,0,0,1024,1024,1024,1024,0,0,92,,,,,,,0,32,189.54938369025,91.00722076,6,P-GPS,,2020-09-29 13:58:39,57.774652148788206
59,7837,2020-09-29 11:58:39,51.5197439480258,5.85804363078646,91.00722076,88.12008156,85.30184,189.54938369025,0,16.797518001,102.77985893200001,15,0,0,189.54938369025,91.00722076,20.7107537288,102.77985893200001,0.223694,-1.342164,-1.11847,271.0,28.7,7.1,0,0,1024,1024,1024,1024,0,0,92,,,,,,,0,32,189.54938369025,91.00722076,6,P-GPS,,2020-09-29 13:58:39,57.774652148788206
60,7929,2020-09-29 11:58:39,51.5197439480258,5.85804363078646,95.31168284,92.42454364,85.30184,193.85384577025002,0,16.834136708800003,102.77985893200001,15,0,0,193.85384577025002,95.31168284,20.7107537288,102.77985893200001,0.223694,-1.342164,-1.11847,271.9,29.8,7.5,0,0,1024,1024,1024,1024,0,0,92,,,,,,,0,32,193.85384577025002,95.31168284,6,P-GPS,,2020-09-29 13:58:39,59.086652190772206
61,8130,2020-09-29 11:58:39,51.51975037431729,5.85796555732399,95.31168284,92.42454364,85.30184,193.85384577025002,0,16.834136708800003,120.63156554,15,0,0,193.85384577025002,95.31168284,20.7107537288,120.63156554,0.223694,-1.342164,-1.11847,271.9,29.8,7.5,0,0,1024,1024,1024,1024,0,0,92,,,,,,,0,32,193.85384577025002,95.31168284,6,P-GPS,,2020-09-29 13:58:39,59.086652190772206
62,8136,2020-09-29 11:58:39,51.51975037431729,5.85796555732399,98.01837584,95.13123664,85.30184,196.56053877025002,0,16.726607002999998,120.63156554,15,0,0,196.56053877025002,98.01837584,20.7107537288,120.63156554,0.223694,-1.11847,-1.11847,272.9,29.9,5.9,0,0,1024,1024,1024,1024,0,0,92,,,,,,,0,32,196.56053877025002,98.01837584,6,P-GPS,,2020-09-29 13:58:39,59.91165221717221
70,9137,2020-09-29 11:58:40,51.519759333333305,5.85789133333333,111.38123716,108.49409796,85.30184,209.92340009025003,0,16.201999834200002,137.795936168,15,0,0,209.92340009025003,111.38123716,20.7107537288,137.795936168,0.223694,-1.11847,-1.11847,275.3,30.4,3.4,0,0,1024,1024,1024,1024,0,0,91,,,,,,,0,32,209.92340009025003,111.38123716,6,P-GPS,,2020-09-29 13:58:40,63.98465234750821
69,9135,2020-09-29 11:58:40,51.519759333333305,5.85789133333333,111.38123716,108.49409796,85.30184,209.92340009025003,0,16.201999834200002,137.795936168,15,0,0,209.92340009025003,111.38123716,20.7107537288,137.795936168,0.223694,-1.11847,-1.11847,275.3,30.4,3.4,0,0,1024,1024,1024,1024,0,0,91,,,,,,,0,32,209.92340009025003,111.38123716,6,P-GPS,,2020-09-29 13:58:40,63.98465234750821
71,9335,2020-09-29 11:58:40,51.519759333333305,5.85789133333333,118.42520064,115.53806144,85.30184,216.96736357025003,0,15.8001335632,137.795936168,15,0,0,216.96736357025003,118.42520064,20.7107537288,137.795936168,0.223694,-1.11847,-1.11847,274.3,29.1,5.8,0,0,1024,1024,1024,1024,0,0,91,,,,,,,0,32,216.96736357025003,118.42520064,6,P-GPS,,2020-09-29 13:58:40,66.13165241621222
68,8931,2020-09-29 11:58:40,51.51975037431729,5.85796555732399,111.38123716,108.49409796,85.30184,209.92340009025003,0,16.201999834200002,120.63156554,15,0,0,209.92340009025003,111.38123716,20.7107537288,120.63156554,0.223694,-1.11847,-1.11847,275.3,30.4,3.4,0,0,1024,1024,1024,1024,0,0,91,,,,,,,0,32,209.92340009025003,111.38123716,6,P-GPS,,2020-09-29 13:58:40,63.98465234750821
64,8530,2020-09-29 11:58:40,51.51975037431729,5.85796555732399,104.21260176,101.32546256,85.30184,202.75476469025003,0,16.7339665356,120.63156554,15,0,0,202.75476469025003,104.21260176,20.7107537288,120.63156554,0.223694,-1.11847,-1.11847,274.4,30.7,4.9,0,0,1024,1024,1024,1024,0,0,92,,,,,,,0,32,202.75476469025003,104.21260176,6,P-GPS,,2020-09-29 13:58:40,61.79965227758821
66,8862,2020-09-29 11:58:40,51.51975037431729,5.85796555732399,108.46457040000001,105.57743119999999,85.30184,207.00673333025003,0,16.584225772,120.63156554,15,0,0,207.00673333025003,108.46457040000001,20.7107537288,120.63156554,0.223694,-1.11847,-1.11847,274.9,30.6,4.2,0,0,1024,1024,1024,1024,0,0,91,,,,,,,0,32,207.00673333025003,108.46457040000001,6,P-GPS,,2020-09-29 13:58:40,63.095652319060214
67,8918,2020-09-29 11:58:40,51.51975037431729,5.85796555732399,108.46457040000001,105.57743119999999,85.30184,207.00673333025003,0,16.584225772,120.63156554,15,0,0,207.00673333025003,108.46457040000001,20.7107537288,120.63156554,0.223694,-1.11847,-1.11847,274.9,30.6,4.2,0,0,1024,1024,1024,1024,0,0,91,,,,,,,0,32,207.00673333025003,108.46457040000001,6,P-GPS,,2020-09-29 13:58:40,63.095652319060214
65,8731,2020-09-29 11:58:40,51.51975037431729,5.85796555732399,108.46457040000001,105.57743119999999,85.30184,207.00673333025003,0,16.584225772,120.63156554,15,0,0,207.00673333025003,108.46457040000001,20.7107537288,120.63156554,0.223694,-1.11847,-1.11847,274.9,30.6,4.2,0,0,1024,1024,1024,1024,0,0,92,,,,,,,0,32,207.00673333025003,108.46457040000001,6,P-GPS,,2020-09-29 13:58:40,63.095652319060214
72,9535,2020-09-29 11:58:41,51.519759333333305,5.85789133333333,121.26968892,118.38254972,85.30184,219.81185185025,0,15.609948924400001,137.795936168,15,0,0,219.81185185025,121.26968892,20.7107537288,137.795936168,0.223694,-1.11847,-1.11847,275.4,29.8,4.8,0,0,1024,1024,1024,1024,0,0,91,,,,,,,0,32,219.81185185025,121.26968892,6,P-GPS,,2020-09-29 13:58:41,66.9986524439562
73,9740,2020-09-29 11:58:41,51.519759333333305,5.85789133333333,124.30446592,121.41732672,85.30184,222.84662885025003,0,15.609948924400001,137.795936168,15,0,0,222.84662885025003,124.30446592,20.7107537288,137.795936168,0.223694,-1.11847,-1.11847,276.5,28.4,4.1,0,0,1024,1024,1024,1024,0,0,91,,,,,,,0,32,222.84662885025003,124.30446592,6,P-GPS,,2020-09-29 13:58:41,67.92365247355622
74,9940,2020-09-29 11:58:41,51.519759333333305,5.85789133333333,128.35958416,125.47244496,85.30184,226.90174709025,0,15.457411985799999,137.795936168,15,0,0,226.90174709025,128.35958416,20.7107537288,137.795936168,0.223694,-1.11847,-1.11847,276.6,27.7,6.0,0,0,1024,1024,1024,1024,0,0,91,,,,,,,0,32,226.90174709025,128.35958416,6,P-GPS,,2020-09-29 13:58:41,69.15965251310821
75,9986,2020-09-29 11:58:41,51.519759333333305,5.85789133333333,128.35958416,125.47244496,85.30184,226.90174709025,0,15.457411985799999,137.795936168,15,0,0,226.90174709025,128.35958416,20.7107537288,137.795936168,0.223694,-1.11847,-1.11847,276.6,27.7,6.0,0,0,1024,1024,1024,1024,0,0,91,,,,,,,0,32,226.90174709025,128.35958416,6,P-GPS,,2020-09-29 13:58:41,69.15965251310821
76,10140,2020-09-29 11:58:41,51.51976757927711,5.85781825873448,128.35958416,125.47244496,85.30184,226.90174709025,0,15.457411985799999,154.656172928,15,0,0,226.90174709025,128.35958416,20.7107537288,154.656172928,0.223694,-1.11847,-1.11847,276.6,27.7,6.0,0,0,1024,1024,1024,1024,0,0,91,,,,,,,0,32,226.90174709025,128.35958416,6,P-GPS,,2020-09-29 13:58:41,69.15965251310821
77,10141,2020-09-29 11:58:41,51.51976757927711,5.85781825873448,128.35958416,125.47244496,85.30184,226.90174709025,0,15.457411985799999,154.656172928,15,0,0,226.90174709025,128.35958416,20.7107537288,154.656172928,0.223694,-1.11847,-1.11847,276.6,27.7,6.0,0,0,1024,1024,1024,1024,0,0,91,,,,,,,0,32,226.90174709025,128.35958416,6,P-GPS,,2020-09-29 13:58:41,69.15965251310821
78,10224,2020-09-29 11:58:41,51.51976757927711,5.85781825873448,130.97769448,128.09055528,85.30184,229.51985741025,0,15.507161531400001,154.656172928,15,0,0,229.51985741025,130.97769448,20.7107537288,154.656172928,0.223694,-1.11847,-1.11847,276.4,28.0,7.1,0,0,1024,1024,1024,1024,0,0,90,,,,,,,0,32,229.51985741025,130.97769448,6,P-GPS,,2020-09-29 13:58:41,69.95765253864421
79,10347,2020-09-29 11:58:41,51.51976757927711,5.85781825873448,133.2349124,130.3477732,85.30184,231.77707533025003,0,15.551810853800001,154.656172928,15,0,0,231.77707533025003,133.2349124,20.7107537288,154.656172928,0.223694,-1.11847,-1.11847,276.2,28.7,6.8,0,0,1024,1024,1024,1024,0,0,90,,,,,,,0,32,231.77707533025003,133.2349124,6,P-GPS,,2020-09-29 13:58:41,70.64565256066021
84,11150,2020-09-29 11:58:42,51.519775774870006,5.8577443936119105,141.98491268,138.70407268,85.69554079999999,240.52707561025002,0,15.852858239000001,171.68963804,15,0,0,240.52707561025002,141.98491268,20.7107537288,171.68963804,0.223694,-1.11847,-1.11847,277.0,29.9,5.4,0,0,1024,1024,1024,1024,0,0,90,,,,,,,0,32,240.52707561025002,141.98491268,6,P-GPS,,2020-09-29 13:58:42,73.31265264600421
85,11350,2020-09-29 11:58:42,51.519775774870006,5.8577443936119105,149.65879744,146.37795744,85.69554079999999,248.20096037025002,0,15.8984023374,171.68963804,15,0,0,248.20096037025002,149.65879744,20.7107537288,171.68963804,0.223694,-1.11847,-1.11847,276.1,29.9,5.2,0,0,1024,1024,1024,1024,0,0,90,,,,,,,0,32,248.20096037025002,149.65879744,6,P-GPS,,2020-09-29 13:58:42,75.65165272085221
83,11043,2020-09-29 11:58:42,51.51976757927711,5.85781825873448,141.98491268,139.09777348,85.30184,240.52707561025002,0,15.852858239000001,154.656172928,15,0,0,240.52707561025002,141.98491268,20.7107537288,154.656172928,0.223694,-1.11847,-1.11847,277.0,29.9,5.4,0,0,1024,1024,1024,1024,0,0,90,,,,,,,0,32,240.52707561025002,141.98491268,6,P-GPS,,2020-09-29 13:58:42,73.31265264600421
81,10747,2020-09-29 11:58:42,51.51976757927711,5.85781825873448,140.0426554,137.15551619999997,85.30184,238.58481833025002,0,15.8199304822,154.656172928,15,0,0,238.58481833025002,140.0426554,20.7107537288,154.656172928,0.223694,-1.11847,-1.11847,277.5,29.2,4.4,0,0,1024,1024,1024,1024,0,0,90,,,,,,,0,32,238.58481833025002,140.0426554,6,P-GPS,,2020-09-29 13:58:42,72.7206526270602
80,10547,2020-09-29 11:58:42,51.51976757927711,5.85781825873448,136.08268152,133.19554232,85.30184,234.62484445025,0,15.755215807999999,154.656172928,15,0,0,234.62484445025,136.08268152,20.7107537288,154.656172928,0.223694,-1.11847,-1.11847,276.9,28.3,4.8,0,0,1024,1024,1024,1024,0,0,90,,,,,,,0,32,234.62484445025,136.08268152,6,P-GPS,,2020-09-29 13:58:42,71.5136525884362
82,10949,2020-09-29 11:58:42,51.51976757927711,5.85781825873448,141.98491268,139.09777348,85.30184,240.52707561025002,0,15.852858239000001,154.656172928,15,0,0,240.52707561025002,141.98491268,20.7107537288,154.656172928,0.223694,-1.11847,-1.11847,277.0,29.9,5.4,0,0,1024,1024,1024,1024,0,0,90,,,,,,,0,32,240.52707561025002,141.98491268,6,P-GPS,,2020-09-29 13:58:42,73.31265264600421
86,11522,2020-09-29 11:58:43,51.519775774870006,5.8577443936119105,149.65879744,146.37795744,85.69554079999999,248.20096037025002,0,15.8984023374,171.68963804,15,0,0,248.20096037025002,149.65879744,20.7107537288,171.68963804,0.223694,-1.11847,-1.11847,276.1,29.9,5.2,0,0,1024,1024,1024,1024,0,0,89,,,,,,,0,32,248.20096037025002,149.65879744,6,P-GPS,,2020-09-29 13:58:43,75.65165272085221
87,11557,2020-09-29 11:58:43,51.519775774870006,5.8577443936119105,152.51312824,149.23228824,85.69554079999999,251.05529117025,0,15.8024376114,171.68963804,15,0,0,251.05529117025,152.51312824,20.7107537288,171.68963804,0.223694,-1.11847,-1.11847,274.6,24.3,4.3,0,0,1024,1024,1024,1024,0,0,89,,,,,,,0,32,251.05529117025,152.51312824,6,P-GPS,,2020-09-29 13:58:43,76.5216527486922
88,11758,2020-09-29 11:58:43,51.519775774870006,5.8577443936119105,156.84711788,153.56627788,85.69554079999999,255.38928081025003,0,15.396656695399999,171.68963804,15,0,0,255.38928081025003,156.84711788,20.7107537288,171.68963804,0.223694,-1.11847,-0.894776,275.3,20.3,0.7,0,0,1024,1024,1024,1024,0,0,89,,,,,,,0,32,255.38928081025003,156.84711788,6,P-GPS,,2020-09-29 13:58:43,77.84265279096421
89,11958,2020-09-29 11:58:43,51.519775774870006,5.8577443936119105,158.78937516,155.50853516,85.69554079999999,257.33153809025004,0,15.776265413399999,171.68963804,15,0,0,257.33153809025004,158.78937516,20.7107537288,171.68963804,0.0,-1.342164,-0.894776,274.6,16.2,1.5,0,0,1024,1024,1024,1024,0,0,89,,,,,,,0,32,257.33153809025004,158.78937516,6,P-GPS,,2020-09-29 13:58:43,78.43465280990821
90,12107,2020-09-29 11:58:43,51.519775774870006,5.8577443936119105,158.78937516,155.50853516,85.69554079999999,257.33153809025004,0,15.776265413399999,171.68963804,15,0,0,257.33153809025004,158.78937516,20.7107537288,171.68963804,0.0,-1.342164,-0.894776,274.6,16.2,1.5,0,0,1024,1024,1024,1024,0,0,89,,,,,,,0,32,257.33153809025004,158.78937516,6,P-GPS,,2020-09-29 13:58:43,78.43465280990821
91,12160,2020-09-29 11:58:43,51.5197815357861,5.85766725223659,158.78937516,154.58989996,86.614176,257.33153809025004,0,15.776265413399999,189.29659398400003,15,0,0,257.33153809025004,158.78937516,20.7107537288,189.29659398400003,0.0,-1.342164,-0.894776,274.6,16.2,1.5,0,0,1024,1024,1024,1024,0,0,89,,,,,,,0,32,257.33153809025004,158.78937516,6,P-GPS,,2020-09-29 13:58:43,78.43465280990821
92,12360,2020-09-29 11:58:43,51.5197815357861,5.85766725223659,162.81824668,158.61877148,86.614176,261.36040961025003,0,16.4945468474,189.29659398400003,15,0,0,261.36040961025003,162.81824668,20.7107537288,189.29659398400003,0.0,-1.565858,-0.671082,272.5,8.6,5.8,0,0,1024,1024,1024,1024,0,0,89,,,,,,,0,32,261.36040961025003,162.81824668,6,P-GPS,,2020-09-29 13:58:43,79.6626528492042
93,12401,2020-09-29 11:58:43,51.5197815357861,5.85766725223659,162.81824668,158.61877148,86.614176,261.36040961025003,0,16.4945468474,189.29659398400003,15,0,0,261.36040961025003,162.81824668,20.7107537288,189.29659398400003,0.0,-1.565858,-0.671082,272.5,8.6,5.8,0,0,1024,1024,1024,1024,0,0,89,,,,,,,0,32,261.36040961025003,162.81824668,6,P-GPS,,2020-09-29 13:58:43,79.6626528492042
100,13166,2020-09-29 11:58:44,51.519783247298605,5.8575603856953,164.26837796,158.82218356,87.8608952,262.81054089025,0,16.746068381,213.32152913599998,15,0,0,262.99098709025003,164.44882416,20.7107537288,213.32152913599998,0.0,-1.565858,-0.223694,270.5,4.5,10.1,0,0,1024,1024,1024,1024,0,0,86,,,,,,,0,32,262.81054089025,164.26837796,6,P-GPS,,2020-09-29 13:58:44,80.1046528633482
103,13368,2020-09-29 11:58:44,51.519783247298605,5.8575603856953,165.16076644,159.71457204,87.8608952,263.70292937025,0,15.468574316400002,213.32152913599998,15,0,0,263.70292937025,165.16076644,20.7107537288,213.32152913599998,0.0,-1.565858,0.0,270.3,1.3,17.6,0,0,1024,1024,1024,1024,0,0,85,,,,,,,0,32,263.70292937025,165.16076644,6,P-GPS,,2020-09-29 13:58:44,80.3766528720522
102,13182,2020-09-29 11:58:44,51.519783247298605,5.8575603856953,164.70472968,159.25853528,87.8608952,263.24689261025003,0,16.1857820192,213.32152913599998,15,0,0,263.24689261025003,164.70472968,20.7107537288,213.32152913599998,0.0,-1.565858,-0.223694,269.8,3.1,14.2,0,0,1024,1024,1024,1024,0,0,85,,,,,,,0,32,263.24689261025003,164.70472968,6,P-GPS,,2020-09-29 13:58:44,80.23765286760421
101,13172,2020-09-29 11:58:44,51.519783247298605,5.8575603856953,164.70472968,159.25853528,87.8608952,263.24689261025003,0,16.1857820192,213.32152913599998,15,0,0,263.24689261025003,164.70472968,20.7107537288,213.32152913599998,0.0,-1.565858,-0.223694,269.8,3.1,14.2,0,0,1024,1024,1024,1024,0,0,86,,,,,,,0,32,263.24689261025003,164.70472968,6,P-GPS,,2020-09-29 13:58:44,80.23765286760421
104,13393,2020-09-29 11:58:44,51.519783247298605,5.8575603856953,165.16076644,159.71457204,87.8608952,263.70292937025,0,15.468574316400002,213.32152913599998,15,0,0,263.70292937025,165.16076644,20.7107537288,213.32152913599998,0.0,-1.565858,0.0,270.3,1.3,17.6,0,0,1024,1024,1024,1024,0,0,84,,,,,,,0,32,263.70292937025,165.16076644,6,P-GPS,,2020-09-29 13:58:44,80.3766528720522
99,13015,2020-09-29 11:58:44,51.5197815357861,5.85766725223659,164.26837796,160.06890276,86.614176,262.81054089025,0,16.746068381,189.29659398400003,15,0,0,262.99098709025003,164.44882416,20.7107537288,189.29659398400003,0.0,-1.565858,-0.223694,270.5,4.5,10.1,0,0,1024,1024,1024,1024,0,0,86,,,,,,,0,32,262.81054089025,164.26837796,6,P-GPS,,2020-09-29 13:58:44,80.1046528633482
97,12869,2020-09-29 11:58:44,51.5197815357861,5.85766725223659,164.36680316,160.16732796,86.614176,262.90896609025003,0,18.092214134200002,189.29659398400003,15,0,0,262.99098709025003,164.44882416,20.7107537288,189.29659398400003,0.0,-1.789552,-0.447388,271.7,5.9,9.5,0,0,1024,1024,1024,1024,0,0,87,,,,,,,0,32,262.90896609025003,164.36680316,6,P-GPS,,2020-09-29 13:58:44,80.13465286430821
96,12767,2020-09-29 11:58:44,51.5197815357861,5.85766725223659,164.36680316,160.16732796,86.614176,262.90896609025003,0,18.092214134200002,189.29659398400003,15,0,0,262.99098709025003,164.44882416,20.7107537288,189.29659398400003,0.0,-1.789552,-0.447388,271.7,5.9,9.5,0,0,1024,1024,1024,1024,0,0,88,,,,,,,0,32,262.90896609025003,164.36680316,6,P-GPS,,2020-09-29 13:58:44,80.13465286430821
95,12635,2020-09-29 11:58:44,51.5197815357861,5.85766725223659,164.44882416,160.24934896,86.614176,262.99098709025003,0,17.3820080536,189.29659398400003,15,0,0,262.99098709025003,164.44882416,20.7107537288,189.29659398400003,0.0,-1.789552,-0.447388,272.6,7.4,7.6,0,0,1024,1024,1024,1024,0,0,88,,,,,,,0,32,262.99098709025003,164.44882416,6,P-GPS,,2020-09-29 13:58:44,80.15965286510821
94,12561,2020-09-29 11:58:44,51.5197815357861,5.85766725223659,164.44882416,160.24934896,86.614176,262.99098709025003,0,17.3820080536,189.29659398400003,15,0,0,262.99098709025003,164.44882416,20.7107537288,189.29659398400003,0.0,-1.789552,-0.447388,272.6,7.4,7.6,0,0,1024,1024,1024,1024,0,0,89,,,,,,,0,32,262.99098709025003,164.44882416,6,P-GPS,,2020-09-29 13:58:44,80.15965286510821
98,12965,2020-09-29 11:58:44,51.5197815357861,5.85766725223659,164.26837796,160.06890276,86.614176,262.81054089025,0,16.746068381,189.29659398400003,15,0,0,262.99098709025003,164.44882416,20.7107537288,189.29659398400003,0.0,-1.565858,-0.223694,270.5,4.5,10.1,0,0,1024,1024,1024,1024,0,0,87,,,,,,,0,32,262.81054089025,164.26837796,6,P-GPS,,2020-09-29 13:58:44,80.1046528633482
105,13568,2020-09-29 11:58:45,51.519783247298605,5.8575603856953,165.48228876,160.03609436,87.8608952,264.02445169025003,0,15.618292710599999,213.32152913599998,15,0,0,264.02445169025003,165.48228876,20.7107537288,213.32152913599998,0.223694,-1.565858,0.0,272.9,-0.6,19.2,0,0,1024,1024,1024,1024,0,0,84,,,,,,,0,32,264.02445169025003,165.48228876,6,P-GPS,,2020-09-29 13:58:45,80.47465287518821
106,13702,2020-09-29 11:58:45,51.519783247298605,5.8575603856953,165.48228876,160.03609436,87.8608952,264.02445169025003,0,15.618292710599999,213.32152913599998,15,0,0,264.02445169025003,165.48228876,20.7107537288,213.32152913599998,0.223694,-1.565858,0.0,272.9,-0.6,19.2,0,0,1024,1024,1024,1024,0,0,83,,,,,,,0,32,264.02445169025003,165.48228876,6,P-GPS,,2020-09-29 13:58:45,80.47465287518821
107,13769,2020-09-29 11:58:45,51.519783247298605,5.8575603856953,165.31496592,159.86877152,87.8608952,263.85712885025004,0,15.712803425599999,213.32152913599998,15,0,0,264.02445169025003,165.48228876,20.7107537288,213.32152913599998,0.223694,-1.565858,0.0,276.9,-2.2,20.2,0,0,1024,1024,1024,1024,0,0,83,,,,,,,0,32,263.85712885025004,165.31496592,6,P-GPS,,2020-09-29 13:58:45,80.42365287355622
108,13969,2020-09-29 11:58:45,51.519783247298605,5.8575603856953,165.28215752,159.83596312,87.8608952,263.82432045025,0,16.1001966948,213.32152913599998,15,0,0,264.02445169025003,165.48228876,20.7107537288,213.32152913599998,0.223694,-1.565858,0.223694,281.7,-2.7,21.5,0,0,1024,1024,1024,1024,0,0,83,,,,,,,0,32,263.82432045025,165.28215752,6,P-GPS,,2020-09-29 13:58:45,80.4136528732362
109,14168,2020-09-29 11:58:45,51.519783247298605,5.8575603856953,165.28215752,159.83596312,87.8608952,263.82432045025,0,16.1001966948,213.32152913599998,15,0,0,264.02445169025003,165.48228876,20.7107537288,213.32152913599998,0.223694,-1.565858,0.223694,281.7,-2.7,21.5,0,0,1024,1024,1024,1024,0,0,82,,,,,,,0,32,263.82432045025,165.28215752,6,P-GPS,,2020-09-29 13:58:45,80.4136528732362
110,14169,2020-09-29 11:58:45,51.519792020404395,5.85745992332925,165.28215752,158.65486072,89.04199759999999,263.82432045025,0,16.1001966948,236.34843276,15,0,0,264.02445169025003,165.48228876,20.7107537288,236.34843276,0.223694,-1.565858,0.223694,281.7,-2.7,21.5,0,0,1024,1024,1024,1024,0,0,82,,,,,,,0,32,263.82432045025,165.28215752,6,P-GPS,,2020-09-29 13:58:45,80.4136528732362
111,14247,2020-09-29 11:58:45,51.519792020404395,5.85745992332925,165.11811552,158.49081872,89.04199759999999,263.66027845025,0,16.522709922,236.34843276,15,0,0,264.02445169025003,165.48228876,20.7107537288,236.34843276,0.447388,-1.565858,0.223694,285.6,-2.3,24.1,0,0,1024,1024,1024,1024,0,0,82,,,,,,,0,32,263.66027845025,165.11811552,6,P-GPS,,2020-09-29 13:58:45,80.3636528716362
112,14370,2020-09-29 11:58:45,51.519792020404395,5.85745992332925,164.83596328,158.20866648,89.04199759999999,263.37812621025,0,17.1354525268,236.34843276,15,0,0,264.02445169025003,165.48228876,20.7107537288,236.34843276,0.671082,-1.565858,0.223694,288.9,-1.4,24.2,0,0,1024,1024,1024,1024,0,0,82,,,,,,,0,32,263.37812621025,164.83596328,6,P-GPS,,2020-09-29 13:58:45,80.2776528688842
118,15182,2020-09-29 11:58:46,51.5198267289702,5.85735776773316,164.92126512,157.08005752,90.25590840000001,263.46342805025,0,18.5971138616,261.390428312,15,0,0,264.02445169025003,165.48228876,20.7107537288,261.390428312,1.11847,-1.565858,0.0,305.4,1.3,24.8,0,0,1024,1024,1024,1024,0,0,81,,,,,,,0,32,263.46342805025,164.92126512,6,P-GPS,,2020-09-29 13:58:46,80.3036528697162
117,15178,2020-09-29 11:58:46,51.5198267289702,5.85735776773316,164.92126512,157.08005752,90.25590840000001,263.46342805025,0,18.5971138616,261.390428312,15,0,0,264.02445169025003,165.48228876,20.7107537288,261.390428312,1.11847,-1.565858,0.0,305.4,1.3,24.8,0,0,1024,1024,1024,1024,0,0,81,,,,,,,0,32,263.46342805025,164.92126512,6,P-GPS,,2020-09-29 13:58:46,80.3036528697162
116,14990,2020-09-29 11:58:46,51.519792020404395,5.85745992332925,164.92126512,158.29396832,89.04199759999999,263.46342805025,0,18.5971138616,236.34843276,15,0,0,264.02445169025003,165.48228876,20.7107537288,236.34843276,1.11847,-1.565858,0.0,305.4,1.3,24.8,0,0,1024,1024,1024,1024,0,0,81,,,,,,,0,32,263.46342805025,164.92126512,6,P-GPS,,2020-09-29 13:58:46,80.3036528697162
114,14771,2020-09-29 11:58:46,51.519792020404395,5.85745992332925,164.62270868,157.99541188,89.04199759999999,263.16487161025003,0,18.3689907204,236.34843276,15,0,0,264.02445169025003,165.48228876,20.7107537288,236.34843276,0.894776,-1.565858,0.0,299.6,0.3,24.2,0,0,1024,1024,1024,1024,0,0,82,,,,,,,0,32,263.16487161025003,164.62270868,6,P-GPS,,2020-09-29 13:58:46,80.21265286680422
113,14571,2020-09-29 11:58:46,51.519792020404395,5.85745992332925,164.82283992,158.19554312,89.04199759999999,263.36500285025,0,17.5273644148,236.34843276,15,0,0,264.02445169025003,165.48228876,20.7107537288,236.34843276,0.671082,-1.565858,0.0,293.8,-0.4,23.9,0,0,1024,1024,1024,1024,0,0,82,,,,,,,0,32,263.36500285025,164.82283992,6,P-GPS,,2020-09-29 13:58:46,80.2736528687562
115,14977,2020-09-29 11:58:46,51.519792020404395,5.85745992332925,164.92126512,158.29396832,89.04199759999999,263.46342805025,0,18.5971138616,236.34843276,15,0,0,264.02445169025003,165.48228876,20.7107537288,236.34843276,1.11847,-1.565858,0.0,305.4,1.3,24.8,0,0,1024,1024,1024,1024,0,0,82,,,,,,,0,32,263.46342805025,164.92126512,6,P-GPS,,2020-09-29 13:58:46,80.3036528697162
119,15509,2020-09-29 11:58:47,51.5198267289702,5.85735776773316,164.85564832,157.01444072,90.25590840000001,263.39781125025,0,19.0993516304,261.390428312,15,0,0,264.02445169025003,165.48228876,20.7107537288,261.390428312,1.342164,-1.565858,0.0,309.6,2.2,24.3,0,0,1024,1024,1024,1024,0,0,81,,,,,,,0,32,263.39781125025,164.85564832,6,P-GPS,,2020-09-29 13:58:47,80.2836528690762
120,15510,2020-09-29 11:58:47,51.5198267289702,5.85735776773316,165.73163259999998,157.890425,90.25590840000001,264.27379553025,0,19.296202350399998,261.390428312,15,0,0,264.27379553025,165.73163259999998,20.7107537288,261.390428312,1.342164,-1.342164,-0.223694,316.9,3.9,23.8,0,0,1024,1024,1024,1024,0,0,81,,,,,,,0,32,264.27379553025,165.73163259999998,6,P-GPS,,2020-09-29 13:58:47,80.55065287762021
121,15579,2020-09-29 11:58:47,51.5198267289702,5.85735776773316,165.83333864,157.99213104,90.25590840000001,264.37550157025004,0,19.9770821476,261.390428312,15,0,0,264.37550157025004,165.83333864,20.7107537288,261.390428312,1.565858,-1.11847,-0.223694,318.9,4.6,24.4,0,0,1024,1024,1024,1024,0,0,81,,,,,,,0,32,264.37550157025004,165.83333864,6,P-GPS,,2020-09-29 13:58:47,80.58165287861222
122,15778,2020-09-29 11:58:47,51.5198267289702,5.85735776773316,166.46654076,158.62533316,90.25590840000001,265.00870369025,0,20.3731100052,261.390428312,15,0,0,265.00870369025,166.46654076,20.7107537288,261.390428312,1.789552,-1.11847,-0.223694,324.3,4.3,24.5,0,0,1024,1024,1024,1024,0,0,81,,,,,,,0,32,265.00870369025,166.46654076,6,P-GPS,,2020-09-29 13:58:47,80.77465288478821
123,15978,2020-09-29 11:58:47,51.5198267289702,5.85735776773316,167.02428356,159.18307596,90.25590840000001,265.56644649025003,0,20.4559662628,261.390428312,15,0,0,265.56644649025003,167.02428356,20.7107537288,261.390428312,1.789552,-0.894776,-0.223694,329.9,3.0,24.9,0,0,1024,1024,1024,1024,0,0,81,,,,,,,0,32,265.56644649025003,167.02428356,6,P-GPS,,2020-09-29 13:58:47,80.94465289022821
124,16181,2020-09-29 11:58:47,51.519892764167096,5.85728733521929,167.02428356,158.33005756,91.10892679999999,265.56644649025003,0,20.4559662628,282.42586205599997,15,0,0,265.56644649025003,167.02428356,20.7107537288,282.42586205599997,1.789552,-0.894776,-0.223694,329.9,3.0,24.9,0,0,1024,1024,1024,1024,0,0,81,,,,,,,0,32,265.56644649025003,167.02428356,6,P-GPS,,2020-09-29 13:58:47,80.94465289022821
125,16182,2020-09-29 11:58:47,51.519892764167096,5.85728733521929,167.02428356,158.33005756,91.10892679999999,265.56644649025003,0,20.4559662628,282.42586205599997,15,0,0,265.56644649025003,167.02428356,20.7107537288,282.42586205599997,1.789552,-0.894776,-0.223694,329.9,3.0,24.9,0,0,1024,1024,1024,1024,0,0,81,,,,,,,0,32,265.56644649025003,167.02428356,6,P-GPS,,2020-09-29 13:58:47,80.94465289022821
126,16382,2020-09-29 11:58:47,51.519892764167096,5.85728733521929,168.41535972,159.72113372,91.10892679999999,266.95752265025004,0,21.952479122800003,282.42586205599997,15,0,0,266.95752265025004,168.41535972,21.952479122800003,282.42586205599997,2.013246,-0.671082,-0.223694,340.1,1.0,25.7,0,0,1024,1024,1024,1024,0,0,81,,,,,,,0,32,266.95752265025004,168.41535972,6,P-GPS,,2020-09-29 13:58:47,81.36865290379622
132,17393,2020-09-29 11:58:48,51.519986692909896,5.857270179788361,169.73097656,160.83990016,91.3057772,268.27313949025,0,27.111041718000003,296.880586928,15,0,0,268.27313949025,169.73097656,27.111041718000003,296.880586928,2.684328,0.447388,0.0,14.0,-0.1,29.6,0,0,1024,1024,1024,1024,0,0,81,,,,,,,0,32,268.27313949025,169.73097656,6,P-GPS,,2020-09-29 13:58:48,81.7696529166282
133,17455,2020-09-29 11:58:48,51.519986692909896,5.857270179788361,169.73097656,160.83990016,91.3057772,268.27313949025,0,27.111041718000003,296.880586928,15,0,0,268.27313949025,169.73097656,27.111041718000003,296.880586928,2.684328,0.447388,0.0,14.0,-0.1,29.6,0,0,1024,1024,1024,1024,0,0,81,,,,,,,0,32,268.27313949025,169.73097656,6,P-GPS,,2020-09-29 13:58:48,81.7696529166282
131,17188,2020-09-29 11:58:48,51.519986692909896,5.857270179788361,169.27165896,160.38058256,91.3057772,267.81382189025004,0,24.91503772,296.880586928,15,0,0,267.81382189025004,169.27165896,24.91503772,296.880586928,2.460634,0.0,0.0,358.3,0.3,29.5,0,0,1024,1024,1024,1024,0,0,81,,,,,,,0,32,267.81382189025004,169.27165896,6,P-GPS,,2020-09-29 13:58:48,81.62965291214822
127,16582,2020-09-29 11:58:48,51.519892764167096,5.85728733521929,168.59252508,159.89829908,91.10892679999999,267.13468801025,0,22.647451641999996,282.42586205599997,15,0,0,267.13468801025,168.59252508,22.647451641999996,282.42586205599997,2.23694,-0.447388,-0.223694,346.0,-0.1,25.7,0,0,1024,1024,1024,1024,0,0,81,,,,,,,0,32,267.13468801025,168.59252508,6,P-GPS,,2020-09-29 13:58:48,81.4226529055242
129,16987,2020-09-29 11:58:48,51.519892764167096,5.85728733521929,169.27165896,160.57743296,91.10892679999999,267.81382189025004,0,24.91503772,282.42586205599997,15,0,0,267.81382189025004,169.27165896,24.91503772,282.42586205599997,2.460634,0.0,0.0,358.3,0.3,29.5,0,0,1024,1024,1024,1024,0,0,81,,,,,,,0,32,267.81382189025004,169.27165896,6,P-GPS,,2020-09-29 13:58:48,81.62965291214822
128,16786,2020-09-29 11:58:48,51.519892764167096,5.85728733521929,169.12730200000001,160.433076,91.10892679999999,267.66946493025,0,23.620744236,282.42586205599997,15,0,0,267.66946493025,169.12730200000001,23.620744236,282.42586205599997,2.460634,-0.223694,-0.223694,352.7,0.3,27.6,0,0,1024,1024,1024,1024,0,0,81,,,,,,,0,32,267.66946493025,169.12730200000001,6,P-GPS,,2020-09-29 13:58:48,81.58565291074021
130,17187,2020-09-29 11:58:48,51.519986692909896,5.857270179788361,169.27165896,160.38058256,91.3057772,267.81382189025004,0,24.91503772,296.880586928,15,0,0,267.81382189025004,169.27165896,24.91503772,296.880586928,2.460634,0.0,0.0,358.3,0.3,29.5,0,0,1024,1024,1024,1024,0,0,81,,,,,,,0,32,267.81382189025004,169.27165896,6,P-GPS,,2020-09-29 13:58:48,81.62965291214822
134,17593,2020-09-29 11:58:49,51.519986692909896,5.857270179788361,170.08858812,161.19751172,91.3057772,268.63075105025,0,28.122362292,296.880586928,15,0,0,268.63075105025,170.08858812,28.122362292,296.880586928,2.684328,0.671082,0.0,23.2,-0.6,32.0,0,0,1024,1024,1024,1024,0,0,81,,,,,,,0,32,268.63075105025,170.08858812,6,P-GPS,,2020-09-29 13:58:49,81.87865292011621
135,17793,2020-09-29 11:58:49,51.519986692909896,5.857270179788361,169.8162784,160.925202,91.3057772,268.35844133025,0,29.275504862,296.880586928,15,0,0,268.63075105025,170.08858812,29.275504862,296.880586928,2.684328,1.11847,0.0,31.8,-0.6,34.2,0,0,1024,1024,1024,1024,0,0,81,,,,,,,0,32,268.35844133025,169.8162784,6,P-GPS,,2020-09-29 13:58:49,81.7956529174602
136,17997,2020-09-29 11:58:49,51.519986692909896,5.857270179788361,169.40289256,160.51181616,91.3057772,267.94505549025,0,30.578522411999998,296.880586928,15,0,0,268.63075105025,170.08858812,30.578522411999998,296.880586928,2.684328,1.565858,0.223694,41.1,0.0,33.3,0,0,1024,1024,1024,1024,0,0,81,,,,,,,0,32,267.94505549025,169.40289256,6,P-GPS,,2020-09-29 13:58:49,81.66965291342821
137,18197,2020-09-29 11:58:49,51.5200946554563,5.85733886215348,169.40289256,160.87270856,90.9448848,267.94505549025,0,30.578522411999998,299.710639512,15,0,0,268.63075105025,170.08858812,30.578522411999998,299.710639512,2.684328,1.565858,0.223694,41.1,0.0,33.3,0,0,1024,1024,1024,1024,0,0,81,,,,,,,0,32,267.94505549025,169.40289256,6,P-GPS,,2020-09-29 13:58:49,81.66965291342821
138,18397,2020-09-29 11:58:49,51.5200946554563,5.85733886215348,168.2414752,159.71129119999998,90.9448848,266.78363813025004,0,32.422655748000004,299.710639512,14,0,0,268.63075105025,170.08858812,32.422655748000004,299.710639512,2.460634,2.23694,0.223694,59.6,1.5,32.6,0,0,1024,1024,1024,1024,0,0,81,,,,,,,0,32,266.78363813025004,168.2414752,6,P-GPS,,2020-09-29 13:58:49,81.31565290210021
145,19407,2020-09-29 11:58:50,51.5201678456815,5.8575127343615305,165.34121264,157.23753784,90.5183756,263.88337557025,0,33.374473718000004,281.740166496,14,0,0,268.63075105025,170.08858812,33.492360456,299.710639512,0.894776,3.131716,0.223694,92.8,9.1,13.7,0,0,1024,1024,1024,1024,0,0,81,,,,,,,0,32,263.88337557025,165.34121264,6,P-GPS,,2020-09-29 13:58:50,80.4316528738122
144,19208,2020-09-29 11:58:50,51.5201678456815,5.8575127343615305,165.9776956,157.8740208,90.5183756,264.51985853025,0,33.492360456,281.740166496,14,0,0,268.63075105025,170.08858812,33.492360456,299.710639512,1.11847,3.131716,0.223694,88.8,8.4,19.0,0,0,1024,1024,1024,1024,0,0,81,,,,,,,0,32,264.51985853025,165.9776956,6,P-GPS,,2020-09-29 13:58:50,80.62565288002021
142,19004,2020-09-29 11:58:50,51.5200946554563,5.85733886215348,166.53871924,158.00853524,90.9448848,265.08088217025,0,33.101567038,299.710639512,14,0,0,268.63075105025,170.08858812,33.101567038,299.710639512,1.342164,2.9080220000000003,0.223694,83.3,6.5,23.5,0,0,1024,1024,1024,1024,0,0,81,,,,,,,0,32,265.08088217025,166.53871924,6,P-GPS,,2020-09-29 13:58:50,80.79665288549221
143,19207,2020-09-29 11:58:50,51.5201678456815,5.8575127343615305,166.53871924,158.43504444,90.5183756,265.08088217025,0,33.101567038,281.740166496,14,0,0,268.63075105025,170.08858812,33.101567038,299.710639512,1.342164,2.9080220000000003,0.223694,83.3,6.5,23.5,0,0,1024,1024,1024,1024,0,0,81,,,,,,,0,32,265.08088217025,166.53871924,6,P-GPS,,2020-09-29 13:58:50,80.79665288549221
140,18603,2020-09-29 11:58:50,51.5200946554563,5.85733886215348,167.67060904,159.14042504,90.9448848,266.21277197025,0,32.515265064,299.710639512,14,0,0,268.63075105025,170.08858812,32.515265064,299.710639512,2.013246,2.460634,0.223694,68.2,3.1,30.5,0,0,1024,1024,1024,1024,0,0,81,,,,,,,0,32,266.21277197025,167.67060904,6,P-GPS,,2020-09-29 13:58:50,81.14165289653221
139,18520,2020-09-29 11:58:50,51.5200946554563,5.85733886215348,168.2414752,159.71129119999998,90.9448848,266.78363813025004,0,32.422655748000004,299.710639512,14,0,0,268.63075105025,170.08858812,32.422655748000004,299.710639512,2.460634,2.23694,0.223694,59.6,1.5,32.6,0,0,1024,1024,1024,1024,0,0,81,,,,,,,0,32,266.78363813025004,168.2414752,6,P-GPS,,2020-09-29 13:58:50,81.31565290210021
141,18804,2020-09-29 11:58:50,51.5200946554563,5.85733886215348,167.09974288,158.56955888,90.9448848,265.64190581025,0,32.784816334,299.710639512,14,0,0,268.63075105025,170.08858812,32.784816334,299.710639512,1.789552,2.684328,0.223694,76.5,5.2,26.7,0,0,1024,1024,1024,1024,0,0,81,,,,,,,0,32,265.64190581025,167.09974288,6,P-GPS,,2020-09-29 13:58:50,80.96765289096422
146,19588,2020-09-29 11:58:51,51.5201678456815,5.8575127343615305,165.34121264,157.23753784,90.5183756,263.88337557025,0,33.374473718000004,281.740166496,14,0,0,268.63075105025,170.08858812,33.492360456,299.710639512,0.894776,3.131716,0.223694,92.8,9.1,13.7,0,0,1024,1024,1024,1024,0,0,81,,,,,,,0,32,263.88337557025,165.34121264,6,P-GPS,,2020-09-29 13:58:51,80.4316528738122
147,19608,2020-09-29 11:58:51,51.5201678456815,5.8575127343615305,164.78018899999998,156.67651419999999,90.5183756,263.32235193025,0,32.44457776,281.740166496,14,0,0,268.63075105025,170.08858812,33.492360456,299.710639512,0.447388,3.131716,0.223694,96.3,9.9,8.4,0,0,1024,1024,1024,1024,0,0,81,,,,,,,0,32,263.32235193025,164.78018899999998,6,P-GPS,,2020-09-29 13:58:51,80.26065286834022
148,19811,2020-09-29 11:58:51,51.5201678456815,5.8575127343615305,164.30774804,156.20407324,90.5183756,262.84991097025,0,32.55978017,281.740166496,14,0,0,268.63075105025,170.08858812,33.492360456,299.710639512,0.447388,3.131716,0.0,98.8,10.8,4.5,0,0,1024,1024,1024,1024,0,0,81,,,,,,,0,32,262.84991097025,164.30774804,6,P-GPS,,2020-09-29 13:58:51,80.1166528637322
149,20012,2020-09-29 11:58:51,51.5201678456815,5.8575127343615305,164.20932284,156.10564804,90.5183756,262.75148577025004,0,32.375680008,281.740166496,14,0,0,268.63075105025,170.08858812,33.492360456,299.710639512,0.223694,3.131716,0.0,99.8,10.6,1.3,0,0,1024,1024,1024,1024,0,0,81,,,,,,,0,32,262.75148577025004,164.20932284,6,P-GPS,,2020-09-29 13:58:51,80.08665286277221
150,20212,2020-09-29 11:58:51,51.520186451826895,5.8577210522246395,164.20932284,156.69619924,89.9278244,262.75148577025004,0,32.375680008,251.159128772,14,0,0,268.63075105025,170.08858812,33.492360456,299.710639512,0.223694,3.131716,0.0,99.8,10.6,1.3,0,0,1024,1024,1024,1024,0,0,81,,,,,,,0,32,262.75148577025004,164.20932284,6,P-GPS,,2020-09-29 13:58:51,80.08665286277221
151,20213,2020-09-29 11:58:51,51.520186451826895,5.8577210522246395,164.20932284,156.69619924,89.9278244,262.75148577025004,0,32.375680008,251.159128772,15,0,0,268.63075105025,170.08858812,33.492360456,299.710639512,0.223694,3.131716,0.0,99.8,10.6,1.3,0,0,1024,1024,1024,1024,0,0,81,,,,,,,0,32,262.75148577025004,164.20932284,6,P-GPS,,2020-09-29 13:58:51,80.08665286277221
152,20214,2020-09-29 11:58:51,51.520186451826895,5.8577210522246395,164.01247244,156.49934884,89.9278244,262.55463537025,0,32.136551122,251.159128772,15,0,0,268.63075105025,170.08858812,33.492360456,299.710639512,0.223694,3.131716,0.0,100.7,10.7,-2.6,0,0,1024,1024,1024,1024,0,0,81,,,,,,,0,32,262.55463537025,164.01247244,6,P-GPS,,2020-09-29 13:58:51,80.02665286085221
153,20413,2020-09-29 11:58:51,51.520186451826895,5.8577210522246395,163.74344356,156.23031996,89.9278244,262.28560649025,0,32.020230242,251.159128772,15,0,0,268.63075105025,170.08858812,33.492360456,299.710639512,0.0,3.131716,0.0,100.8,10.4,-3.7,0,0,1024,1024,1024,1024,0,0,81,,,,,,,0,32,262.28560649025,163.74344356,6,P-GPS,,2020-09-29 13:58:51,79.94465285822821
159,21226,2020-09-29 11:58:52,51.5201868220873,5.85792952013806,163.11352228,155.79724908,89.730974,261.65568521025,0,31.793180831999997,221.103353532,15,0,0,268.63075105025,170.08858812,33.492360456,299.710639512,0.0,3.131716,0.223694,102.2,8.0,-7.3,0,0,1024,1024,1024,1024,0,0,81,,,,,,,0,32,261.65568521025,163.11352228,6,P-GPS,,2020-09-29 13:58:52,79.75265285208421
161,21425,2020-09-29 11:58:52,51.5201868220873,5.85792952013806,162.20144876,154.88517556,89.730974,260.74361169025,0,32.01508528,221.103353532,15,0,0,268.63075105025,170.08858812,33.492360456,299.710639512,0.0,3.131716,0.223694,100.9,7.4,-8.9,0,0,1024,1024,1024,1024,0,0,81,,,,,,,0,32,260.74361169025,162.20144876,6,P-GPS,,2020-09-29 13:58:52,79.47465284318821
158,21224,2020-09-29 11:58:52,51.5201868220873,5.85792952013806,163.11352228,155.79724908,89.730974,261.65568521025,0,31.793180831999997,221.103353532,15,0,0,268.63075105025,170.08858812,33.492360456,299.710639512,0.0,3.131716,0.223694,102.2,8.0,-7.3,0,0,1024,1024,1024,1024,0,0,81,,,,,,,0,32,261.65568521025,163.11352228,6,P-GPS,,2020-09-29 13:58:52,79.75265285208421
160,21227,2020-09-29 11:58:52,51.5201868220873,5.85792952013806,162.60171124,155.28543804,89.730974,261.14387417025,0,31.931647418,221.103353532,15,0,0,268.63075105025,170.08858812,33.492360456,299.710639512,0.0,3.131716,0.223694,101.8,7.0,-7.5,0,0,1024,1024,1024,1024,0,0,81,,,,,,,0,32,261.14387417025,162.60171124,6,P-GPS,,2020-09-29 13:58:52,79.5966528470922
