latitude,longitude,altitude(m),ultrasonicHeight(m),speed(mps),distance(m),max_altitude(m),max_ascent(m),max_speed(mps),max_distance(m),time(millisecond),datetime(utc),datetime(local),satellites,pressure(Pa),temperature(F),voltage(v),home_latitude,home_longitude,velocityX(mps),velocityY(mps),velocityZ(mps),pitch(deg),roll(deg),yaw(deg),powerlevel,isflying,istakingphoto,remainPowerPercent,remainLifePercent,currentCurrent,currentElectricity,currentVoltage,batteryTemperature,dischargeCount,flightmode,isMotorsOn,isTakingVideo,Rc_elevator,Rc_aileron,Rc_throttle,Rc_rudder,Rc_gyro,timestamp,Battery_Cell1,Battery_Cell2,Battery_Cell3,Battery_Cell4,Battery_Cell5,Battery_Cell6,Dronetype,AppVersion,Planename,FlyControllerSerialNumber,RemoteSerialNumber,BatterySerialNumber,CENTER_BATTERY.productDate,CENTER_BATTERY.serialNo,CENTER_BATTERY.fullCapacity,CENTER_BATTERY.productDateRaw,pitchRaw,rollRaw,yawRaw,gimbalPitchRaw,gimbalRollRaw,gimbalYawRaw,flyState,altitudeRaw,speedRaw,distanceRaw,velocityXRaw,velocityYRaw,velocityZRaw,data_reuse,App_Tip,App_Warning,downlinkSignalQuality,uplinkSignalQuality,transmissionChannel,rcModeSwitch,rcHome,rcPause,rcTransform,rcJoystickMode,appMode,FlyControllerSerialNumber_legacy,RemoteSerialNumber_legacy,BatterySerialNumber_legacy,Battery2SerialNumber,frontAvoidDist,backAvoidDist,isBrakingToAvoid
51.519333,5.857853,1.60,1.80,3.90,0.32,1.60,1.60,3.90,0.32,0,2020-09-29 13:55:18.607,2020-09-29 15:55:18.608,12,0,0,16.666,51.519331,5.857850,0.00,0.00,-3.90,1.00,-2.70,-19.40,0,1,0,99,97,-2206,5603,16666,2941.50,35,GPS,1,0,0,0,660,0,0,1601387718607,0,0,0,0,0,0,23,Litchi_iOS_2.8.0,kcdgc-P4 Professional V2.0,11VKF7U00203L3,0WGUF4F00100N3,0DQAF5N03201UP,,0,5660,0,-10.00,-27.00,-194.00,0.00,0.00,-236.00,6,16.00,39.00,3.21,0.00,0.00,-39.00,0,,,100,100,0,2,0,0,0,0,0,(null),(null),(null),(null),9.6,4.4,0
51.519333,5.857853,1.90,2.20,4.20,0.33,1.90,1.90,4.20,0.33,117,2020-09-29 13:55:18.725,2020-09-29 15:55:18.725,12,0,0,16.666,51.519331,5.857850,0.00,0.00,-4.20,1.40,-2.40,-18.80,0,1,0,99,97,-2206,5603,16666,2941.50,35,GPS,1,0,0,0,660,0,0,1601387718724,0,0,0,0,0,0,23,,,,,,,0,0,0,-14.00,-24.00,-188.00,0.00,0.00,-233.00,6,19.00,42.00,3.32,0.00,0.00,-42.00,0,,,100,100,0,2,0,0,0,0,0,,,,,9.6,4.4,0
51.519333,5.857853,2.30,2.60,4.50,0.31,2.30,2.30,4.50,0.33,197,2020-09-29 13:55:18.804,2020-09-29 15:55:18.805,12,0,0,16.218,51.519331,5.857850,0.00,0.00,-4.50,1.30,-1.60,-18.30,0,1,0,99,97,-10000,5603,16218,2941.50,35,GPS,1,0,0,0,660,0,0,1601387718804,0,0,0,0,0,0,23,,,,,,,0,0,0,-13.00,-16.00,-183.00,0.00,0.00,-228.00,6,23.00,45.00,3.13,0.00,0.00,-45.00,0,,,100,100,0,2,0,0,0,0,0,,,,,9.6,4.4,0
51.519333,5.857853,2.80,3.10,4.80,0.32,2.80,2.80,4.80,0.33,316,2020-09-29 13:55:18.924,2020-09-29 15:55:18.924,12,0,0,16.218,51.519331,5.857850,0.00,0.00,-4.80,1.30,-0.90,-17.90,0,1,0,99,97,-10000,5603,16218,2941.50,35,GPS,1,0,0,0,660,0,0,1601387718923,0,0,0,0,0,0,23,,,,,,,0,0,0,-13.00,-9.00,-179.00,0.00,0.00,-224.00,6,28.00,48.00,3.18,0.00,0.00,-48.00,0,,,100,100,0,2,0,0,0,0,0,,,,,10.2,4.4,0
51.519333,5.857854,3.30,3.60,4.90,0.33,3.30,3.30,4.90,0.33,407,2020-09-29 13:55:19.014,2020-09-29 15:55:19.014,12,0,0,16.218,51.519331,5.857850,0.00,0.00,-4.90,1.10,-0.70,-17.50,0,1,0,99,97,-10000,5603,16218,2941.50,35,GPS,1,0,0,0,660,0,0,1601387719014,0,0,0,0,0,0,23,,,,,,,0,0,0,-11.00,-7.00,-175.00,0.00,0.00,-220.00,6,33.00,49.00,3.26,0.00,0.00,-49.00,0,,,100,100,0,2,0,0,0,0,0,,,,,0.0,4.5,0
51.519333,5.857854,3.80,4.10,5.00,0.34,3.80,3.80,5.00,0.34,507,2020-09-29 13:55:19.115,2020-09-29 15:55:19.115,12,0,0,16.218,51.519331,5.857850,0.10,0.00,-5.00,1.00,-1.20,-17.10,0,1,0,99,97,-10000,5603,16218,2941.50,35,GPS,1,0,0,0,660,0,0,1601387719114,0,0,0,0,0,0,23,,,,,,,0,0,0,-10.00,-12.00,-171.00,0.00,0.00,-215.00,6,38.00,50.01,3.40,1.00,0.00,-50.00,0,,,100,100,0,2,0,0,0,0,0,,,,,0.0,4.7,0
51.519333,5.857854,4.40,4.60,5.10,0.35,4.40,4.40,5.10,0.35,614,2020-09-29 13:55:19.222,2020-09-29 15:55:19.222,12,0,0,16.218,51.519331,5.857850,0.10,0.10,-5.10,1.60,-1.90,-16.80,0,1,0,99,97,-10000,5603,16218,2941.50,35,GPS,1,0,0,0,660,0,0,1601387719221,0,0,0,0,0,0,23,,,,,,,0,0,0,-16.00,-19.00,-168.00,0.00,0.00,-211.00,6,44.00,51.02,3.53,1.00,1.00,-51.00,0,,,100,100,0,2,0,0,0,0,0,,,,,0.0,4.8,0
51.519333,5.857855,4.90,5.10,5.10,0.39,4.90,4.90,5.10,0.39,714,2020-09-29 13:55:19.322,2020-09-29 15:55:19.322,12,0,0,16.218,51.519331,5.857850,0.10,0.00,-5.10,2.20,-2.50,-16.50,0,1,0,99,97,-10000,5603,16218,2941.50,35,GPS,1,0,0,0,660,0,0,1601387719321,0,0,0,0,0,0,23,,,,,,,0,0,0,-22.00,-25.00,-165.00,0.00,0.00,-207.00,6,49.00,51.01,3.86,1.00,0.00,-51.00,0,,,100,100,0,2,0,0,0,0,0,,,,,0.0,5.3,0
51.519333,5.857855,5.40,5.60,5.10,0.42,5.40,5.40,5.10,0.42,817,2020-09-29 13:55:19.424,2020-09-29 15:55:19.424,12,0,0,16.218,51.519331,5.857850,0.10,0.10,-5.10,2.50,-2.70,-16.40,0,1,0,99,97,-10000,5603,16218,2941.50,35,GPS,1,0,0,0,660,0,0,1601387719424,0,0,0,0,0,0,23,,,,,,,0,0,0,-25.00,-27.00,-164.00,0.00,0.00,-203.00,6,54.00,51.02,4.19,1.00,1.00,-51.00,0,,,100,100,0,2,0,0,0,0,0,,,,,0.0,7.0,0
51.519333,5.857856,5.90,6.10,5.10,0.45,5.90,5.90,5.10,0.45,916,2020-09-29 13:55:19.524,2020-09-29 15:55:19.524,12,0,0,16.218,51.519331,5.857850,0.10,0.10,-5.10,2.40,-2.90,-16.40,0,1,0,99,97,-10000,5603,16218,2941.50,35,GPS,1,0,0,0,660,0,0,1601387719523,0,0,0,0,0,0,23,,,,,,,0,0,0,-24.00,-29.00,-164.00,0.00,0.00,-203.00,6,59.00,51.02,4.53,1.00,1.00,-51.00,0,,,100,100,0,2,0,0,0,0,0,,,,,0.0,9.8,0
51.519333,5.857856,6.50,6.70,5.10,0.49,6.50,6.50,5.10,0.49,1005,2020-09-29 13:55:19.613,2020-09-29 15:55:19.613,12,0,0,16.218,51.519331,5.857850,0.10,0.10,-5.10,2.40,-3.30,-16.40,0,1,0,99,97,-10000,5603,16218,2941.50,35,GPS,1,0,0,0,660,0,0,1601387719612,0,0,0,0,0,0,23,,,,,,,0,0,0,-24.00,-33.00,-164.00,0.00,0.00,-199.00,6,65.00,51.02,4.86,1.00,1.00,-51.00,0,,,100,100,0,2,0,0,0,0,0,,,,,0.0,10.7,0
51.519333,5.857857,7.00,7.20,5.00,0.53,7.00,7.00,5.10,0.53,1119,2020-09-29 13:55:19.727,2020-09-29 15:55:19.727,12,0,0,16.218,51.519331,5.857850,0.00,0.10,-5.00,2.40,-3.40,-16.40,0,1,0,99,97,-10000,5603,16218,2941.50,35,GPS,1,0,0,0,660,0,0,1601387719726,0,0,0,0,0,0,23,,,,,,,0,0,0,-24.00,-34.00,-164.00,0.00,0.00,-196.00,6,70.00,50.01,5.26,0.00,1.00,-50.00,0,,,100,100,0,2,0,0,0,0,0,,,,,0.0,12.2,0
51.519333,5.857857,7.50,7.70,5.00,0.56,7.50,7.50,5.10,0.56,1200,2020-09-29 13:55:19.807,2020-09-29 15:55:19.807,12,0,0,15.849,51.519331,5.857850,0.00,0.10,-5.00,2.70,-3.40,-16.50,0,1,0,99,97,-21176,5603,15849,2941.50,35,GPS,1,0,0,0,660,0,0,1601387719807,0,0,0,0,0,0,23,,,,,,,0,0,0,-27.00,-34.00,-165.00,0.00,0.00,-193.00,6,75.00,50.01,5.61,0.00,1.00,-50.00,0,,,100,100,0,2,0,0,0,0,0,,,,,0.0,14.2,0
51.519333,5.857858,8.00,8.20,5.00,0.59,8.00,8.00,5.10,0.59,1317,2020-09-29 13:55:19.924,2020-09-29 15:55:19.924,12,0,0,15.849,51.519331,5.857850,0.00,0.20,-5.00,2.30,-3.60,-16.50,0,1,0,99,97,-21176,5603,15849,2941.50,35,GPS,1,0,0,0,660,0,0,1601387719924,0,0,0,0,0,0,23,,,,,,,0,0,0,-23.00,-36.00,-165.00,0.00,0.00,-191.00,6,80.00,50.04,5.89,0.00,2.00,-50.00,0,,,100,100,0,2,0,0,0,0,0,,,,,0.0,0.0,0
51.519333,5.857858,8.50,8.70,5.00,0.61,8.50,8.50,5.10,0.61,1408,2020-09-29 13:55:20.015,2020-09-29 15:55:20.015,12,0,0,15.849,51.519331,5.857850,0.00,0.20,-5.00,1.70,-3.90,-16.50,0,1,0,99,97,-21176,5603,15849,2941.50,35,GPS,1,0,0,0,660,0,0,1601387720015,0,0,0,0,0,0,23,,,,,,,0,0,0,-17.00,-39.00,-165.00,0.00,0.00,-189.00,6,85.00,50.04,6.14,0.00,2.00,-50.00,0,,,100,100,0,2,0,0,0,0,0,,,,,0.0,0.0,0
51.519333,5.857859,8.90,9.20,4.90,0.64,8.90,8.90,5.10,0.64,1507,2020-09-29 13:55:20.115,2020-09-29 15:55:20.115,12,0,0,15.849,51.519331,5.857850,0.00,0.20,-4.90,0.60,-4.20,-16.50,0,1,0,99,97,-21176,5603,15849,2941.50,35,GPS,1,0,0,0,660,0,0,1601387720114,0,0,0,0,0,0,23,,,,,,,0,0,0,-6.00,-42.00,-165.00,0.00,0.00,-188.00,6,89.00,49.04,6.45,0.00,2.00,-49.00,0,,,100,100,0,2,0,0,0,0,0,,,,,0.0,0.0,0
51.519333,5.857859,9.40,9.70,4.90,0.67,9.40,9.40,5.10,0.67,1603,2020-09-29 13:55:20.211,2020-09-29 15:55:20.211,12,0,0,15.849,51.519331,5.857850,0.00,0.10,-4.90,0.30,-4.50,-16.50,0,1,0,99,97,-21176,5603,15849,2941.50,35,GPS,1,0,0,0,660,0,0,1601387720210,0,0,0,0,0,0,23,,,,,,,0,0,0,-3.00,-45.00,-165.00,0.00,0.00,-187.00,6,94.00,49.01,6.67,0.00,1.00,-49.00,0,,,100,100,0,2,0,0,0,0,0,,,,,0.0,0.0,0
51.519333,5.857860,9.90,10.10,4.90,0.69,9.90,9.90,5.10,0.69,1704,2020-09-29 13:55:20.311,2020-09-29 15:55:20.311,12,0,0,15.849,51.519331,5.857850,0.00,0.10,-4.90,0.50,-4.60,-16.50,0,1,0,99,97,-21176,5603,15849,2941.50,35,GPS,1,0,0,0,660,0,0,1601387720311,0,0,0,0,0,0,23,,,,,,,0,0,0,-5.00,-46.00,-165.00,0.00,0.00,-185.00,6,99.00,49.01,6.86,0.00,1.00,-49.00,0,,,100,100,0,2,0,0,0,0,0,,,,,0.0,0.0,0
51.519333,5.857860,10.40,10.60,4.90,0.70,10.40,10.40,5.10,0.70,1800,2020-09-29 13:55:20.407,2020-09-29 15:55:20.407,12,0,0,15.849,51.519331,5.857850,0.00,0.10,-4.90,0.60,-4.40,-16.50,0,1,0,99,97,-21176,5603,15849,2941.50,35,GPS,1,0,0,0,660,0,0,1601387720407,0,0,0,0,0,0,23,,,,,,,0,0,0,-6.00,-44.00,-165.00,0.00,0.00,-184.00,6,104.00,49.01,7.01,0.00,1.00,-49.00,0,,,100,100,0,2,0,0,0,0,0,,,,,0.0,0.0,0
51.519333,5.857860,10.80,11.10,4.80,0.72,10.80,10.80,5.10,0.72,1906,2020-09-29 13:55:20.514,2020-09-29 15:55:20.514,12,0,0,15.849,51.519331,5.857850,0.00,0.00,-4.80,0.90,-4.20,-16.50,0,1,0,99,97,-21176,5603,15849,2941.50,35,GPS,1,0,0,0,519,0,0,1601387720513,0,0,0,0,0,0,23,,,,,,,0,0,0,-9.00,-42.00,-165.00,0.00,0.00,-183.00,6,108.00,48.00,7.17,0.00,0.00,-48.00,0,,,100,100,0,2,0,0,0,0,0,,,,,0.0,0.0,0
51.519333,5.857860,11.30,11.60,4.80,0.73,11.30,11.30,5.10,0.73,2003,2020-09-29 13:55:20.611,2020-09-29 15:55:20.611,12,0,0,15.849,51.519331,5.857850,0.00,0.00,-4.80,1.70,-4.00,-16.60,0,1,0,99,97,-21176,5603,15849,2941.50,35,GPS,1,0,0,0,0,0,0,1601387720610,0,0,0,0,0,0,23,,,,,,,0,0,0,-17.00,-40.00,-166.00,0.00,0.00,-182.00,6,113.00,48.00,7.26,0.00,0.00,-48.00,0,,,100,100,0,2,0,0,0,0,0,,,,,0.0,0.0,0
51.519333,5.857860,11.80,12.00,4.40,0.73,11.80,11.80,5.10,0.73,2105,2020-09-29 13:55:20.713,2020-09-29 15:55:20.713,12,0,0,15.849,51.519331,5.857850,0.00,0.00,-4.40,1.60,-4.40,-16.70,0,1,0,99,97,-21176,5603,15849,2941.50,35,GPS,1,0,0,0,0,0,0,1601387720712,0,0,0,0,0,0,23,,,,,,,0,0,0,-16.00,-44.00,-167.00,0.00,0.00,-182.00,6,118.00,44.00,7.29,0.00,0.00,-44.00,0,,,100,100,0,2,0,0,0,0,0,,,,,0.0,0.0,0
51.519333,5.857860,12.20,12.40,3.80,0.73,12.20,12.20,5.10,0.73,2207,2020-09-29 13:55:20.815,2020-09-29 15:55:20.815,12,0,0,15.810,51.519331,5.857850,0.00,0.00,-3.80,1.10,-4.90,-16.80,0,1,0,99,97,-21176,5603,15810,2941.50,35,GPS,1,0,0,0,0,0,0,1601387720814,0,0,0,0,0,0,23,,,,,,,0,0,0,-11.00,-49.00,-168.00,0.00,0.00,-181.00,6,122.00,38.00,7.33,0.00,0.00,-38.00,0,,,100,100,0,2,0,0,0,0,0,,,,,0.0,0.0,0
51.519333,5.857860,12.50,12.80,3.10,0.74,12.50,12.50,5.10,0.74,2304,2020-09-29 13:55:20.911,2020-09-29 15:55:20.912,12,0,0,15.810,51.519331,5.857850,0.00,0.10,-3.10,0.80,-5.30,-16.90,0,1,0,99,97,-21176,5603,15810,2941.50,35,GPS,1,0,0,0,0,0,0,1601387720911,0,0,0,0,0,0,23,,,,,,,0,0,0,-8.00,-53.00,-169.00,0.00,0.00,-181.00,6,125.00,31.02,7.36,0.00,1.00,-31.00,0,,,100,100,0,2,0,0,0,0,0,,,,,0.0,0.0,0
51.519333,5.857861,12.80,13.10,2.50,0.75,12.80,12.80,5.10,0.75,2408,2020-09-29 13:55:21.015,2020-09-29 15:55:21.015,12,0,0,15.810,51.519331,5.857850,0.00,0.10,-2.50,0.20,-5.70,-16.90,0,1,0,99,97,-21176,5603,15810,2941.50,35,GPS,1,0,0,0,0,0,0,1601387721015,0,0,0,0,0,0,23,,,,,,,0,0,0,-2.00,-57.00,-169.00,0.00,0.00,-180.00,6,128.00,25.02,7.46,0.00,1.00,-25.00,0,,,100,100,0,2,0,0,0,0,0,,,,,0.0,0.0,0
51.519333,5.857861,13.00,13.30,1.70,0.76,13.00,13.00,5.10,0.76,2508,2020-09-29 13:55:21.115,2020-09-29 15:55:21.115,12,0,0,15.810,51.519331,5.857850,0.00,0.00,-1.70,-0.10,-5.90,-16.90,0,1,0,99,97,-21176,5603,15810,2941.50,35,GPS,1,0,0,0,0,0,0,1601387721115,0,0,0,0,0,0,23,,,,,,,0,0,0,1.00,-59.00,-169.00,0.00,0.00,-180.00,6,130.00,17.00,7.59,0.00,0.00,-17.00,0,,,100,100,0,2,0,0,0,0,0,,,,,0.0,0.0,0
51.519333,5.857861,13.20,13.40,1.10,0.77,13.20,13.20,5.10,0.77,2600,2020-09-29 13:55:21.208,2020-09-29 15:55:21.208,12,0,0,15.810,51.519331,5.857850,0.00,0.10,-1.10,0.20,-5.90,-16.90,0,1,0,99,97,-21176,5603,15810,2941.50,35,GPS,1,0,0,0,0,0,0,1601387721207,0,0,0,0,0,0,23,,,,,,,0,0,0,-2.00,-59.00,-169.00,0.00,0.00,-180.00,6,132.00,11.05,7.71,0.00,1.00,-11.00,0,,,100,100,0,2,0,0,0,0,0,,,,,0.0,0.0,0
51.519333,5.857861,13.30,13.50,0.73,0.77,13.30,13.30,5.10,0.77,2700,2020-09-29 13:55:21.308,2020-09-29 15:55:21.308,12,0,0,15.810,51.519331,5.857850,0.00,0.20,-0.70,0.20,-5.60,-16.90,0,1,0,99,97,-21176,5603,15810,2941.50,35,GPS,1,0,0,0,0,0,0,1601387721307,0,0,0,0,0,0,23,,,,,,,0,0,0,-2.00,-56.00,-169.00,0.00,0.00,-179.00,6,133.00,7.28,7.68,0.00,2.00,-7.00,0,,,100,100,0,2,0,0,0,0,0,,,,,0.0,0.0,0
51.519333,5.857861,13.30,13.50,0.41,0.77,13.30,13.30,5.10,0.77,2800,2020-09-29 13:55:21.408,2020-09-29 15:55:21.408,12,0,0,15.810,51.519331,5.857850,0.00,0.10,-0.40,0.20,-6.40,-16.80,0,1,0,99,97,-21176,5603,15810,2941.50,35,GPS,1,0,0,0,0,0,0,1601387721407,0,0,0,0,0,0,23,,,,,,,0,0,0,-2.00,-64.00,-168.00,0.00,0.00,-179.00,6,133.00,4.12,7.71,0.00,1.00,-4.00,0,,,100,100,0,2,0,0,0,0,0,,,,,0.0,0.0,0
51.519334,5.857861,13.40,13.50,0.22,0.78,13.40,13.40,5.10,0.78,2907,2020-09-29 13:55:21.515,2020-09-29 15:55:21.515,12,0,0,15.810,51.519331,5.857850,0.00,0.10,-0.20,0.10,-7.10,-16.70,0,1,0,99,97,-21176,5603,15810,2941.50,35,GPS,1,0,0,0,0,0,0,1601387721514,0,0,0,0,0,0,23,,,,,,,0,0,0,-1.00,-71.00,-167.00,0.00,0.00,-179.00,6,134.00,2.24,7.77,0.00,1.00,-2.00,0,,,100,100,0,2,0,0,0,0,0,,,,,0.0,0.0,0
51.519334,5.857861,13.40,13.60,0.10,0.78,13.40,13.40,5.10,0.78,3015,2020-09-29 13:55:21.623,2020-09-29 15:55:21.623,12,0,0,15.810,51.519331,5.857850,0.00,0.10,0.00,0.50,-7.40,-16.60,0,1,0,99,97,-21176,5603,15810,2941.50,35,GPS,1,0,0,0,0,0,0,1601387721622,0,0,0,0,0,0,23,,,,,,,0,0,0,-5.00,-74.00,-166.00,0.00,0.00,-178.00,6,134.00,1.00,7.79,0.00,1.00,0.00,0,,,100,100,0,2,0,0,0,0,0,,,,,0.0,0.0,0
51.519334,5.857860,13.40,0.00,0.22,0.77,13.40,13.40,5.10,0.78,3100,2020-09-29 13:55:21.707,2020-09-29 15:55:21.707,12,0,0,15.810,51.519331,5.857850,-0.10,0.20,0.00,0.50,-7.30,-16.60,0,1,0,99,97,-21176,5603,15810,2941.50,35,GPS,1,0,0,0,0,0,0,1601387721707,0,0,0,0,0,0,23,,,,,,,0,0,0,-5.00,-73.00,-166.00,0.00,0.00,-178.00,6,134.00,2.24,7.68,-1.00,2.00,0.00,0,,,100,100,0,2,0,0,0,0,0,,,,,0.0,0.0,0
51.519334,5.857860,13.40,0.00,0.14,0.75,13.40,13.40,5.10,0.78,3197,2020-09-29 13:55:21.805,2020-09-29 15:55:21.805,12,0,0,15.819,51.519331,5.857850,-0.10,0.10,0.00,-0.50,-7.50,-16.50,0,1,0,99,97,-14634,5546,15819,2941.50,35,GPS,1,0,0,0,0,0,0,1601387721804,0,0,0,0,0,0,23,,,,,,,0,0,0,5.00,-75.00,-165.00,0.00,0.00,-178.00,6,134.00,1.41,7.47,-1.00,1.00,0.00,0,,,100,100,0,2,0,0,0,0,0,,,,,0.0,0.0,0
51.519334,5.857859,13.40,0.00,0.22,0.72,13.40,13.40,5.10,0.78,3299,2020-09-29 13:55:21.907,2020-09-29 15:55:21.907,12,0,0,15.819,51.519331,5.857850,-0.20,0.10,0.00,-1.30,-7.50,-16.40,0,1,0,99,97,-14634,5546,15819,2941.50,35,GPS,1,0,0,0,0,0,0,1601387721906,0,0,0,0,0,0,23,,,,,,,0,0,0,13.00,-75.00,-164.00,0.00,0.00,-177.00,6,134.00,2.24,7.23,-2.00,1.00,0.00,0,,,100,100,0,2,0,0,0,0,0,,,,,0.0,0.0,0
51.519334,5.857859,13.40,0.00,0.10,0.70,13.40,13.40,5.10,0.78,3404,2020-09-29 13:55:22.011,2020-09-29 15:55:22.011,12,0,0,15.819,51.519331,5.857850,-0.10,0.00,0.00,-1.90,-7.50,-16.50,0,1,0,99,97,-14634,5546,15819,2941.50,35,GPS,1,0,0,0,0,0,0,1601387722011,0,0,0,0,0,0,23,,,,,,,0,0,0,19.00,-75.00,-165.00,0.00,0.00,-177.00,6,134.00,1.00,6.97,-1.00,0.00,0.00,0,,,100,100,0,2,0,0,0,0,0,,,,,0.0,0.0,0
51.519334,5.857859,13.40,0.00,0.10,0.67,13.40,13.40,5.10,0.78,3515,2020-09-29 13:55:22.123,2020-09-29 15:55:22.123,12,0,0,15.819,51.519331,5.857850,-0.10,0.00,0.00,-2.10,-7.20,-16.50,0,1,0,99,97,-14634,5546,15819,2941.50,35,GPS,1,0,0,0,0,0,0,1601387722122,0,0,0,0,0,0,23,,,,,,,0,0,0,21.00,-72.00,-165.00,0.00,0.00,-177.00,6,134.00,1.00,6.75,-1.00,0.00,0.00,0,,,100,100,0,2,0,0,0,0,0,,,,,0.0,0.0,0
51.519333,5.857859,13.40,0.00,0.10,0.66,13.40,13.40,5.10,0.78,3606,2020-09-29 13:55:22.214,2020-09-29 15:55:22.214,12,0,0,15.819,51.519331,5.857850,-0.10,0.00,0.00,-2.50,-7.00,-16.50,0,1,0,99,97,-14634,5546,15819,2941.50,35,GPS,1,0,0,0,0,0,0,1601387722213,0,0,0,0,0,0,23,,,,,,,0,0,0,25.00,-70.00,-165.00,0.00,0.00,-177.00,6,134.00,1.00,6.55,-1.00,0.00,0.00,0,,,100,100,0,2,0,0,0,0,0,,,,,0.0,0.0,0
51.519333,5.857859,13.40,0.00,0.10,0.63,13.40,13.40,5.10,0.78,3704,2020-09-29 13:55:22.311,2020-09-29 15:55:22.311,12,0,0,15.819,51.519331,5.857850,0.00,-0.10,0.00,-2.40,-6.60,-16.50,0,1,0,99,97,-14634,5546,15819,2941.50,35,GPS,1,0,0,0,0,0,0,1601387722311,3949,3950,3983,3978,0,0,23,,,,,,,0,0,0,24.00,-66.00,-165.00,0.00,0.00,-176.00,6,134.00,1.00,6.30,0.00,-1.00,0.00,0,,,100,100,0,2,0,0,0,0,0,,,,,0.0,0.0,0
51.519333,5.857858,13.40,0.00,0.20,0.60,13.40,13.40,5.10,0.78,3804,2020-09-29 13:55:22.412,2020-09-29 15:55:22.412,12,0,0,15.819,51.519331,5.857850,0.00,-0.20,0.00,-1.70,-5.90,-16.20,0,1,0,99,97,-14634,5546,15819,2941.50,35,GPS,1,0,0,0,0,0,0,1601387722411,3949,3950,3983,3978,0,0,23,,,,,,,0,0,0,17.00,-59.00,-162.00,0.00,0.00,-176.00,6,134.00,2.00,6.02,0.00,-2.00,0.00,0,,,100,100,0,2,0,0,0,0,0,,,,,0.0,0.0,0
51.519333,5.857858,13.40,0.00,0.30,0.57,13.40,13.40,5.10,0.78,3911,2020-09-29 13:55:22.518,2020-09-29 15:55:22.518,12,0,0,15.819,51.519331,5.857850,0.00,-0.30,0.00,-0.90,-5.20,-15.50,0,1,0,99,97,-14634,5546,15819,2941.50,35,GPS,1,0,0,0,0,0,0,1601387722518,3949,3950,3983,3978,0,0,23,,,,,,,0,0,0,9.00,-52.00,-155.00,0.00,0.00,-176.00,6,134.00,3.00,5.69,0.00,-3.00,0.00,0,,,100,100,0,2,0,0,0,0,0,,,,,0.0,0.0,0
51.519334,5.857857,13.50,0.00,0.22,0.60,13.50,13.50,5.10,0.78,4005,2020-09-29 13:55:22.612,2020-09-29 15:55:22.612,12,0,0,15.819,51.519331,5.857850,0.10,-0.20,0.00,0.10,-4.60,-15.30,0,1,0,99,97,-14634,5546,15819,2941.50,35,GPS,1,0,0,0,0,0,0,1601387722612,3949,3950,3983,3978,0,0,23,,,,,,,0,0,0,-1.00,-46.00,-153.00,0.00,0.00,-176.00,6,135.00,2.24,5.98,1.00,-2.00,0.00,0,,,100,100,0,2,0,0,0,0,0,,,,,0.0,0.0,0
51.519334,5.857856,13.50,0.00,0.32,0.58,13.50,13.50,5.10,0.78,4104,2020-09-29 13:55:22.711,2020-09-29 15:55:22.711,12,0,0,15.819,51.519331,5.857850,0.10,-0.30,0.00,1.70,-4.00,-15.30,0,1,0,99,97,-14634,5546,15819,2941.50,35,GPS,1,0,0,0,0,0,0,1601387722711,3949,3950,3983,3978,0,0,23,,,,,,,0,0,0,-17.00,-40.00,-153.00,0.00,0.00,-175.00,6,135.00,3.16,5.76,1.00,-3.00,0.00,0,,,100,100,0,2,0,0,0,0,0,,,,,0.0,0.0,0
51.519335,5.857856,13.50,0.00,0.32,0.56,13.50,13.50,5.10,0.78,4199,2020-09-29 13:55:22.807,2020-09-29 15:55:22.807,12,0,0,16.645,51.519331,5.857850,0.10,-0.30,0.00,2.10,-3.70,-15.40,0,1,0,98,97,-9092,5546,16645,2951.50,35,GPS,1,0,0,0,0,0,0,1601387722806,3949,3950,3983,3978,0,0,23,,,,,,,0,0,0,-21.00,-37.00,-154.00,0.00,0.00,-173.00,6,135.00,3.16,5.59,1.00,-3.00,0.00,0,,,100,100,0,2,0,0,0,0,0,,,,,0.0,0.0,0
51.519335,5.857855,13.50,0.00,0.30,0.54,13.50,13.50,5.10,0.78,4295,2020-09-29 13:55:22.902,2020-09-29 15:55:22.902,12,0,0,16.645,51.519331,5.857850,0.00,-0.30,0.00,2.10,-3.10,-15.50,0,1,0,98,97,-9092,5546,16645,2951.50,35,GPS,1,0,0,0,0,0,0,1601387722902,3949,3950,3983,3978,0,0,23,,,,,,,0,0,0,-21.00,-31.00,-155.00,0.00,0.00,-172.00,6,135.00,3.00,5.38,0.00,-3.00,0.00,0,,,100,100,0,2,0,0,0,0,0,,,,,0.0,0.0,0
51.519335,5.857854,13.50,0.00,0.30,0.49,13.50,13.50,5.10,0.78,4394,2020-09-29 13:55:23.002,2020-09-29 15:55:23.002,11,0,0,16.645,51.519331,5.857850,0.00,-0.30,0.00,1.80,-2.80,-15.50,0,1,0,98,97,-9092,5546,16645,2951.50,35,GPS,1,0,0,0,0,0,0,1601387723001,3949,3950,3983,3978,0,0,23,,,,,,,0,0,0,-18.00,-28.00,-155.00,0.00,0.00,-171.00,6,135.00,3.00,4.93,0.00,-3.00,0.00,0,,,100,100,0,2,0,0,0,0,0,,,,,0.0,0.0,0
51.519335,5.857853,13.50,0.00,0.30,0.47,13.50,13.50,5.10,0.78,4503,2020-09-29 13:55:23.110,2020-09-29 15:55:23.110,11,0,0,16.645,51.519331,5.857850,0.00,-0.30,0.00,1.50,-1.80,-15.60,0,1,0,98,97,-9092,5546,16645,2951.50,35,GPS,1,0,0,0,0,0,0,1601387723110,3949,3950,3983,3978,0,0,23,,,,,,,0,0,0,-15.00,-18.00,-156.00,0.00,0.00,-170.00,6,135.00,3.00,4.66,0.00,-3.00,0.00,0,,,100,100,0,2,0,0,0,0,0,,,,,0.0,0.0,0
51.519335,5.857853,13.50,0.00,0.20,0.44,13.50,13.50,5.10,0.78,4611,2020-09-29 13:55:23.218,2020-09-29 15:55:23.218,11,0,0,16.645,51.519331,5.857850,0.00,-0.20,0.00,1.10,-1.40,-15.80,0,1,0,98,97,-9092,5546,16645,2951.50,35,GPS,1,0,0,0,0,0,0,1601387723218,3949,3950,3983,3978,0,0,23,,,,,,,0,0,0,-11.00,-14.00,-158.00,0.00,0.00,-170.00,6,135.00,2.00,4.41,0.00,-2.00,0.00,0,,,100,100,0,2,0,0,0,0,0,,,,,0.0,0.0,0
51.519335,5.857852,13.60,0.00,0.22,0.42,13.60,13.60,5.10,0.78,4704,2020-09-29 13:55:23.311,2020-09-29 15:55:23.311,11,0,0,16.645,51.519331,5.857850,-0.10,-0.20,0.00,0.50,-1.60,-15.80,0,1,0,98,97,-9092,5546,16645,2951.50,35,GPS,1,0,0,0,0,0,0,1601387723311,3949,3950,3983,3978,0,0,23,,,,,,,0,0,0,-5.00,-16.00,-158.00,0.00,0.00,-169.00,6,136.00,2.24,4.20,-1.00,-2.00,0.00,0,,,100,100,0,2,0,0,0,0,0,,,,,0.0,0.0,0
51.519334,5.857852,13.60,0.00,0.14,0.40,13.60,13.60,5.10,0.78,4804,2020-09-29 13:55:23.411,2020-09-29 15:55:23.411,12,0,0,16.645,51.519331,5.857850,-0.10,-0.10,0.00,-0.10,-1.70,-15.90,0,1,0,98,97,-9092,5546,16645,2951.50,35,GPS,1,0,0,0,0,0,0,1601387723411,3949,3950,3983,3978,0,0,23,,,,,,,0,0,0,1.00,-17.00,-159.00,0.00,0.00,-169.00,6,136.00,1.41,3.99,-1.00,-1.00,0.00,0,,,100,100,0,2,0,0,0,0,0,,,,,0.0,0.0,0
51.519334,5.857852,13.60,0.00,0.10,0.35,13.60,13.60,5.10,0.78,4914,2020-09-29 13:55:23.522,2020-09-29 15:55:23.522,12,0,0,16.645,51.519331,5.857850,-0.10,0.00,0.00,-0.90,-1.70,-16.00,0,1,0,98,97,-9092,5546,16645,2951.50,35,GPS,1,0,0,0,0,0,0,1601387723521,3949,3950,3983,3978,0,0,23,,,,,,,0,0,0,9.00,-17.00,-160.00,0.00,0.00,-169.00,6,136.00,1.00,3.52,-1.00,0.00,0.00,0,,,100,100,0,2,0,0,0,0,0,,,,,0.0,0.0,0
51.519334,5.857852,13.60,0.00,0.10,0.33,13.60,13.60,5.10,0.78,5008,2020-09-29 13:55:23.615,2020-09-29 15:55:23.615,12,0,0,16.645,51.519331,5.857850,-0.10,0.00,0.00,-1.30,-2.10,-16.00,0,1,0,98,97,-9092,5546,16645,2951.50,35,GPS,1,0,0,0,0,0,0,1601387723615,3949,3950,3983,3978,0,0,23,,,,,,,0,0,0,13.00,-21.00,-160.00,0.00,0.00,-168.00,6,136.00,1.00,3.27,-1.00,0.00,0.00,0,,,100,100,0,2,0,0,0,0,0,,,,,0.0,0.0,0
51.519334,5.857852,13.60,0.00,0.10,0.31,13.60,13.60,5.10,0.78,5112,2020-09-29 13:55:23.719,2020-09-29 15:55:23.719,12,0,0,16.645,51.519331,5.857850,-0.10,0.00,0.00,-1.70,-2.60,-16.00,0,1,0,98,97,-9092,5546,16645,2951.50,35,GPS,1,0,0,0,0,0,0,1601387723719,3949,3950,3983,3978,0,0,23,,,,,,,0,0,0,17.00,-26.00,-160.00,0.00,0.00,-168.00,6,136.00,1.00,3.06,-1.00,0.00,0.00,0,,,100,100,0,2,0,0,0,0,0,,,,,0.0,0.0,0
51.519333,5.857852,13.60,0.00,0.10,0.29,13.60,13.60,5.10,0.78,5199,2020-09-29 13:55:23.806,2020-09-29 15:55:23.806,12,0,0,16.061,51.519331,5.857850,-0.10,0.00,0.00,-2.00,-2.90,-16.00,0,1,0,98,97,-9092,5546,16061,2951.50,35,GPS,1,0,0,0,0,0,0,1601387723806,3949,3950,3983,3978,0,0,23,,,,,,,0,0,0,20.00,-29.00,-160.00,0.00,0.00,-168.00,6,136.00,1.00,2.88,-1.00,0.00,0.00,0,,,100,100,0,2,0,0,0,0,0,,,,,0.0,0.0,0
51.519333,5.857852,13.60,0.00,0.10,0.29,13.60,13.60,5.10,0.78,5379,2020-09-29 13:55:23.986,2020-09-29 15:55:23.986,12,0,0,16.061,51.519331,5.857850,-0.10,0.00,0.00,-2.20,-3.40,-16.10,0,1,0,98,97,-9092,5546,16061,2951.50,35,GPS,1,0,0,0,0,0,0,1601387723986,3949,3950,3983,3978,0,0,23,,,,,,,0,0,0,22.00,-34.00,-161.00,0.00,0.00,-168.00,6,136.00,1.00,2.90,-1.00,0.00,0.00,0,,,100,100,0,2,0,0,0,0,0,,,,,0.0,0.0,0
51.519333,5.857852,13.60,0.00,0.10,0.28,13.60,13.60,5.10,0.78,5395,2020-09-29 13:55:24.003,2020-09-29 15:55:24.003,12,0,0,16.061,51.519331,5.857850,-0.10,0.00,0.00,-2.10,-3.70,-16.10,0,1,0,98,97,-9092,5546,16061,2951.50,35,GPS,1,0,0,0,0,0,0,1601387724002,3949,3950,3983,3978,0,0,23,,,,,,,0,0,0,21.00,-37.00,-161.00,0.00,0.00,-168.00,6,136.00,1.00,2.83,-1.00,0.00,0.00,0,,,100,100,0,2,0,0,0,0,0,,,,,0.0,0.0,0
51.519333,5.857852,13.60,0.00,0.10,0.28,13.60,13.60,5.10,0.78,5502,2020-09-29 13:55:24.109,2020-09-29 15:55:24.109,12,0,0,16.061,51.519331,5.857850,-0.10,0.00,0.00,-2.00,-3.60,-16.20,0,1,0,98,97,-9092,5546,16061,2951.50,35,GPS,1,0,0,0,0,0,0,1601387724109,3949,3950,3983,3978,0,0,23,,,,,,,0,0,0,20.00,-36.00,-162.00,0.00,0.00,-168.00,6,136.00,1.00,2.77,-1.00,0.00,0.00,0,,,100,100,0,2,0,0,0,0,0,,,,,0.0,0.0,0
51.519333,5.857852,13.60,0.00,0.00,0.27,13.60,13.60,5.10,0.78,5604,2020-09-29 13:55:24.212,2020-09-29 15:55:24.212,12,0,0,16.061,51.519331,5.857850,0.00,0.00,0.00,-2.00,-3.50,-16.20,0,1,0,98,97,-9092,5546,16061,2951.50,35,GPS,1,0,0,0,0,0,0,1601387724211,3949,3950,3983,3978,0,0,23,,,,,,,0,0,0,20.00,-35.00,-162.00,0.00,0.00,-168.00,6,136.00,0.00,2.72,0.00,0.00,0.00,0,,,100,100,0,2,0,0,0,0,0,,,,,0.0,0.0,0
51.519333,5.857853,13.70,0.00,0.00,0.29,13.70,13.70,5.10,0.78,5692,2020-09-29 13:55:24.300,2020-09-29 15:55:24.300,12,0,0,16.061,51.519331,5.857850,0.00,0.00,0.00,-1.90,-3.60,-16.30,0,1,0,98,97,-9092,5546,16061,2951.50,35,GPS,1,0,0,0,0,0,0,1601387724299,3949,3950,3983,3978,0,0,23,,,,,,,0,0,0,19.00,-36.00,-163.00,0.00,0.00,-168.00,6,137.00,0.00,2.88,0.00,0.00,0.00,0,,,100,100,0,2,0,0,0,0,0,,,,,0.0,0.0,0
51.519333,5.857853,13.70,0.00,0.00,0.28,13.70,13.70,5.10,0.78,5793,2020-09-29 13:55:24.400,2020-09-29 15:55:24.400,12,0,0,16.061,51.519331,5.857850,0.00,0.00,0.00,-1.70,-3.40,-16.20,0,1,0,98,97,-9092,5546,16061,2951.50,35,GPS,1,0,0,0,0,0,0,1601387724400,3949,3950,3983,3978,0,0,23,,,,,,,0,0,0,17.00,-34.00,-162.00,0.00,0.00,-167.00,6,137.00,0.00,2.84,0.00,0.00,0.00,0,,,100,100,0,2,0,0,0,0,0,,,,,0.0,0.0,0
51.519333,5.857852,13.70,0.00,0.10,0.28,13.70,13.70,5.10,0.78,5903,2020-09-29 13:55:24.511,2020-09-29 15:55:24.511,12,0,0,16.061,51.519331,5.857850,-0.10,0.00,0.00,-1.90,-3.30,-16.20,0,1,0,98,97,-9092,5546,16061,2951.50,35,GPS,1,0,0,0,0,0,0,1601387724510,3949,3950,3983,3978,0,0,23,,,,,,,0,0,0,19.00,-33.00,-162.00,0.00,0.00,-168.00,6,137.00,1.00,2.77,-1.00,0.00,0.00,0,,,100,100,0,2,0,0,0,0,0,,,,,0.0,0.0,0
51.519333,5.857852,13.80,0.00,0.10,0.27,13.80,13.80,5.10,0.78,6006,2020-09-29 13:55:24.613,2020-09-29 15:55:24.613,12,0,0,16.061,51.519331,5.857850,-0.10,0.00,0.00,-2.00,-3.40,-16.30,0,1,0,98,97,-9092,5546,16061,2951.50,35,GPS,1,0,0,0,0,0,0,1601387724613,3949,3950,3983,3978,0,0,23,,,,,,,0,0,0,20.00,-34.00,-163.00,0.00,0.00,-168.00,6,138.00,1.00,2.69,-1.00,0.00,0.00,0,,,100,100,0,2,0,0,0,0,0,,,,,0.0,0.0,0
51.519333,5.857852,13.80,0.00,0.10,0.25,13.80,13.80,5.10,0.78,6104,2020-09-29 13:55:24.712,2020-09-29 15:55:24.712,12,0,0,16.061,51.519331,5.857850,-0.10,0.00,0.00,-2.20,-3.40,-16.30,0,1,0,98,97,-9092,5546,16061,2951.50,35,GPS,1,0,0,0,0,0,0,1601387724711,3949,3950,3983,3978,0,0,23,,,,,,,0,0,0,22.00,-34.00,-163.00,0.00,0.00,-167.00,6,138.00,1.00,2.47,-1.00,0.00,0.00,0,,,100,100,0,2,0,0,0,0,0,,,,,0.0,0.0,0
51.519333,5.857852,13.70,0.00,0.14,0.24,13.80,13.80,5.10,0.78,6198,2020-09-29 13:55:24.805,2020-09-29 15:55:24.805,12,0,0,16.026,51.519331,5.857850,-0.10,0.00,0.10,-2.40,-3.30,-16.40,0,1,0,98,97,-11294,5546,16026,2951.50,35,GPS,1,0,0,0,0,0,0,1601387724805,3949,3950,3983,3978,0,0,23,,,,,,,0,0,0,24.00,-33.00,-164.00,0.00,0.00,-167.00,6,137.00,1.41,2.37,-1.00,0.00,1.00,0,,,100,100,0,2,0,0,0,0,0,,,,,0.0,0.0,0
51.519333,5.857852,13.80,0.00,0.00,0.23,13.80,13.80,5.10,0.78,6293,2020-09-29 13:55:24.901,2020-09-29 15:55:24.901,12,0,0,16.026,51.519331,5.857850,0.00,0.00,0.00,-2.20,-3.30,-16.40,0,1,0,98,97,-11294,5546,16026,2951.50,35,GPS,1,0,0,0,0,0,0,1601387724900,3949,3950,3983,3978,0,0,23,,,,,,,0,0,0,22.00,-33.00,-164.00,0.00,0.00,-168.00,6,138.00,0.00,2.28,0.00,0.00,0.00,0,,,100,100,0,2,0,0,0,0,0,,,,,0.0,0.0,0
51.519333,5.857852,13.70,0.00,0.10,0.22,13.80,13.80,5.10,0.78,6405,2020-09-29 13:55:25.013,2020-09-29 15:55:25.013,12,0,0,16.026,51.519331,5.857850,0.00,0.00,0.10,-2.20,-3.40,-16.40,0,1,0,98,97,-11294,5546,16026,2951.50,35,GPS,1,0,0,0,0,0,0,1601387725012,3949,3950,3983,3978,0,0,23,,,,,,,0,0,0,22.00,-34.00,-164.00,0.00,0.00,-167.00,6,137.00,1.00,2.21,0.00,0.00,1.00,0,,,100,100,0,2,0,0,0,0,0,,,,,0.0,0.0,0
51.519333,5.857852,13.70,0.00,0.10,0.21,13.80,13.80,5.10,0.78,6506,2020-09-29 13:55:25.114,2020-09-29 15:55:25.114,12,0,0,16.026,51.519331,5.857850,0.00,0.00,0.10,-2.30,-3.30,-16.50,0,1,0,98,97,-11294,5546,16026,2951.50,35,GPS,1,0,0,0,0,0,0,1601387725113,3949,3950,3983,3978,0,0,23,,,,,,,0,0,0,23.00,-33.00,-165.00,0.00,0.00,-167.00,6,137.00,1.00,2.14,0.00,0.00,1.00,0,,,100,100,0,2,0,0,0,0,0,,,,,0.0,0.0,0
51.519332,5.857852,13.80,0.00,0.10,0.20,13.80,13.80,5.10,0.78,6608,2020-09-29 13:55:25.215,2020-09-29 15:55:25.215,12,0,0,16.026,51.519331,5.857850,0.00,0.00,0.10,-2.20,-3.30,-16.50,0,1,0,98,97,-11294,5546,16026,2951.50,35,GPS,1,0,0,0,0,0,0,1601387725215,3949,3950,3983,3978,0,0,23,,,,,,,0,0,0,22.00,-33.00,-165.00,0.00,0.00,-167.00,6,138.00,1.00,2.03,0.00,0.00,1.00,0,,,100,100,0,2,0,0,0,0,0,,,,,0.0,0.0,0
51.519332,5.857852,13.70,0.00,0.10,0.20,13.80,13.80,5.10,0.78,6704,2020-09-29 13:55:25.311,2020-09-29 15:55:25.311,12,0,0,16.026,51.519331,5.857850,0.00,0.00,0.10,-2.10,-3.30,-16.50,0,1,0,98,97,-11294,5546,16026,2951.50,35,GPS,1,0,0,0,0,0,0,1601387725311,3949,3950,3983,3978,0,0,23,,,,,,,0,0,0,21.00,-33.00,-165.00,0.00,0.00,-167.00,6,137.00,1.00,1.97,0.00,0.00,1.00,0,,,100,100,0,2,0,0,0,0,0,,,,,0.0,0.0,0
51.519332,5.857852,13.80,0.00,0.10,0.19,13.80,13.80,5.10,0.78,6818,2020-09-29 13:55:25.425,2020-09-29 15:55:25.425,12,0,0,16.026,51.519331,5.857850,0.00,0.00,0.10,-2.20,-3.20,-16.50,0,1,0,98,97,-11294,5546,16026,2951.50,35,GPS,1,0,0,0,0,0,0,1601387725425,3949,3950,3983,3978,0,0,23,,,,,,,0,0,0,22.00,-32.00,-165.00,0.00,0.00,-167.00,6,138.00,1.00,1.91,0.00,0.00,1.00,0,,,100,100,0,2,0,0,0,0,0,,,,,0.0,0.0,0
51.519332,5.857852,13.80,0.00,0.10,0.18,13.80,13.80,5.10,0.78,6917,2020-09-29 13:55:25.524,2020-09-29 15:55:25.524,12,0,0,16.026,51.519331,5.857850,0.00,0.00,0.10,-2.20,-3.30,-16.50,0,1,0,98,97,-11294,5546,16026,2951.50,35,GPS,1,0,0,0,0,0,0,1601387725524,3949,3950,3983,3978,0,0,23,,,,,,,0,0,0,22.00,-33.00,-165.00,0.00,0.00,-167.00,6,138.00,1.00,1.84,0.00,0.00,1.00,0,,,100,100,0,2,0,0,0,0,0,,,,,0.0,0.0,0
51.519332,5.857852,13.80,0.00,0.10,0.17,13.80,13.80,5.10,0.78,7013,2020-09-29 13:55:25.621,2020-09-29 15:55:25.621,12,0,0,16.026,51.519331,5.857850,0.00,0.00,0.10,-2.50,-3.50,-16.60,0,1,0,98,97,-11294,5546,16026,2951.50,35,GPS,1,0,0,0,0,0,0,1601387725620,3949,3950,3983,3978,0,0,23,,,,,,,0,0,0,25.00,-35.00,-166.00,0.00,0.00,-167.00,6,138.00,1.00,1.70,0.00,0.00,1.00,0,,,100,100,0,2,0,0,0,0,0,,,,,0.0,0.0,0
51.519332,5.857852,13.80,0.00,0.10,0.16,13.80,13.80,5.10,0.78,7107,2020-09-29 13:55:25.715,2020-09-29 15:55:25.715,12,0,0,16.026,51.519331,5.857850,0.00,0.00,0.10,-2.50,-3.60,-16.60,0,1,0,98,97,-11294,5546,16026,2951.50,35,GPS,1,0,0,0,0,0,0,1601387725714,3949,3950,3983,3978,0,0,23,,,,,,,0,0,0,25.00,-36.00,-166.00,0.00,0.00,-167.00,6,138.00,1.00,1.65,0.00,0.00,1.00,0,,,100,100,0,2,0,0,0,0,0,,,,,0.0,0.0,0
51.519332,5.857852,13.80,0.00,0.10,0.16,13.80,13.80,5.10,0.78,7200,2020-09-29 13:55:25.808,2020-09-29 15:55:25.808,12,0,0,16.021,51.519331,5.857850,0.00,0.00,0.10,-2.20,-3.90,-16.60,0,1,0,98,97,-11294,5546,16021,2951.50,35,GPS,1,0,0,0,0,0,0,1601387725807,3949,3950,3983,3978,0,0,23,,,,,,,0,0,0,22.00,-39.00,-166.00,0.00,0.00,-167.00,6,138.00,1.00,1.61,0.00,0.00,1.00,0,,,100,100,0,2,0,0,0,0,0,,,,,0.0,0.0,0
51.519332,5.857852,13.80,0.00,0.10,0.16,13.80,13.80,5.10,0.78,7304,2020-09-29 13:55:25.911,2020-09-29 15:55:25.912,12,0,0,16.021,51.519331,5.857850,0.00,0.00,0.10,-2.20,-3.90,-16.60,0,1,0,98,97,-11294,5546,16021,2951.50,35,GPS,1,0,0,0,0,0,0,1601387725911,3949,3950,3983,3978,0,0,23,,,,,,,0,0,0,22.00,-39.00,-166.00,0.00,0.00,-167.00,6,138.00,1.00,1.58,0.00,0.00,1.00,0,,,100,100,0,2,0,0,0,0,0,,,,,0.0,0.0,0
51.519332,5.857852,13.80,0.00,0.10,0.15,13.80,13.80,5.10,0.78,7405,2020-09-29 13:55:26.012,2020-09-29 15:55:26.012,12,0,0,16.021,51.519331,5.857850,0.00,0.00,0.10,-2.20,-3.60,-16.60,0,1,0,98,97,-11294,5546,16021,2951.50,35,GPS,1,0,0,0,0,0,0,1601387726012,3949,3950,3983,3978,0,0,23,,,,,,,0,0,0,22.00,-36.00,-166.00,0.00,0.00,-167.00,6,138.00,1.00,1.51,0.00,0.00,1.00,0,,,100,100,0,2,0,0,0,0,0,,,,,0.0,0.0,0
51.519332,5.857852,13.80,0.00,0.10,0.15,13.80,13.80,5.10,0.78,7508,2020-09-29 13:55:26.116,2020-09-29 15:55:26.116,12,0,0,16.021,51.519331,5.857850,0.00,0.00,0.10,-2.10,-3.40,-16.60,0,1,0,98,97,-11294,5546,16021,2951.50,35,GPS,1,0,0,0,0,0,0,1601387726115,3949,3950,3983,3978,0,0,23,,,,,,,0,0,0,21.00,-34.00,-166.00,0.00,0.00,-167.00,6,138.00,1.00,1.49,0.00,0.00,1.00,0,,,100,100,0,2,0,0,0,0,0,,,,,0.0,0.0,0
51.519332,5.857852,13.80,0.00,0.20,0.15,13.80,13.80,5.10,0.78,7614,2020-09-29 13:55:26.222,2020-09-29 15:55:26.222,12,0,0,16.021,51.519331,5.857850,0.00,0.00,0.20,-2.10,-3.40,-16.60,0,1,0,98,97,-11294,5546,16021,2951.50,35,GPS,1,0,0,0,0,0,0,1601387726221,3949,3950,3983,3978,0,0,23,,,,,,,0,0,0,21.00,-34.00,-166.00,0.00,0.00,-167.00,6,138.00,2.00,1.46,0.00,0.00,2.00,0,,,100,100,0,2,0,0,0,0,0,,,,,0.0,0.0,0
51.519332,5.857852,13.80,0.00,0.10,0.14,13.80,13.80,5.10,0.78,7698,2020-09-29 13:55:26.305,2020-09-29 15:55:26.306,12,0,0,16.021,51.519331,5.857850,0.00,0.00,0.10,-2.00,-3.10,-16.60,0,1,0,98,97,-11294,5546,16021,2951.50,35,GPS,1,0,0,0,0,0,0,1601387726305,3949,3950,3983,3978,0,0,23,,,,,,,0,0,0,20.00,-31.00,-166.00,0.00,0.00,-167.00,6,138.00,1.00,1.43,0.00,0.00,1.00,0,,,100,100,0,2,0,0,0,0,0,,,,,0.0,0.0,0
51.519332,5.857852,13.80,0.00,0.10,0.14,13.80,13.80,5.10,0.78,7816,2020-09-29 13:55:26.424,2020-09-29 15:55:26.424,12,0,0,16.021,51.519331,5.857850,0.00,0.00,0.10,-1.90,-2.90,-16.60,0,1,0,98,97,-11294,5546,16021,2951.50,35,GPS,1,0,0,0,0,0,0,1601387726423,3949,3950,3983,3978,0,0,23,,,,,,,0,0,0,19.00,-29.00,-166.00,0.00,0.00,-167.00,6,138.00,1.00,1.40,0.00,0.00,1.00,0,,,100,100,0,2,0,0,0,0,0,,,,,0.0,0.0,0
51.519332,5.857852,13.80,0.00,0.10,0.14,13.80,13.80,5.10,0.78,7913,2020-09-29 13:55:26.520,2020-09-29 15:55:26.520,12,0,0,16.021,51.519331,5.857850,0.00,0.00,0.10,-2.00,-2.90,-16.70,0,1,0,98,97,-11294,5546,16021,2951.50,35,GPS,1,0,0,0,0,0,0,1601387726520,3949,3950,3983,3978,0,0,23,,,,,,,0,0,0,20.00,-29.00,-167.00,0.00,0.00,-167.00,6,138.00,1.00,1.38,0.00,0.00,1.00,0,,,100,100,0,2,0,0,0,0,0,,,,,0.0,0.0,0
51.519332,5.857851,13.80,0.00,0.10,0.14,13.80,13.80,5.10,0.78,7994,2020-09-29 13:55:26.601,2020-09-29 15:55:26.602,11,0,0,16.021,51.519331,5.857850,0.00,0.00,0.10,-2.10,-3.00,-16.70,0,1,0,98,97,-11294,5546,16021,2951.50,35,GPS,1,0,0,0,0,0,0,1601387726601,3949,3950,3983,3978,0,0,23,,,,,,,0,0,0,21.00,-30.00,-167.00,0.00,0.00,-167.00,6,138.00,1.00,1.37,0.00,0.00,1.00,0,,,100,100,0,2,0,0,0,0,0,,,,,0.0,0.0,0
51.519332,5.857851,13.80,0.00,0.10,0.13,13.80,13.80,5.10,0.78,8094,2020-09-29 13:55:26.701,2020-09-29 15:55:26.701,11,0,0,16.021,51.519331,5.857850,0.00,0.00,0.10,-2.00,-3.00,-16.60,0,1,0,98,97,-11294,5546,16021,2951.50,35,GPS,1,0,0,0,0,0,0,1601387726701,3949,3950,3983,3978,0,0,23,,,,,,,0,0,0,20.00,-30.00,-166.00,0.00,0.00,-167.00,6,138.00,1.00,1.35,0.00,0.00,1.00,0,,,100,100,0,2,0,0,0,0,0,,,,,0.0,0.0,0
51.519332,5.857851,13.80,0.00,0.10,0.13,13.80,13.80,5.10,0.78,8197,2020-09-29 13:55:26.805,2020-09-29 15:55:26.805,10,0,0,16.066,51.519331,5.857850,0.00,0.00,0.10,-1.90,-2.80,-16.60,0,1,0,98,97,-11176,5546,16066,2951.50,35,GPS,1,0,0,0,0,0,0,1601387726804,3949,3950,3983,3978,0,0,23,,,,,,,0,0,0,19.00,-28.00,-166.00,0.00,0.00,-167.00,6,138.00,1.00,1.32,0.00,0.00,1.00,0,,,100,100,0,2,0,0,0,0,0,,,,,0.0,0.0,0
51.519332,5.857851,13.70,0.00,0.10,0.12,13.80,13.80,5.10,0.78,8298,2020-09-29 13:55:26.905,2020-09-29 15:55:26.905,10,0,0,16.066,51.519331,5.857850,0.00,0.00,0.10,-2.00,-2.50,-16.60,0,1,0,98,97,-11176,5546,16066,2951.50,35,GPS,1,0,0,0,0,0,0,1601387726905,3949,3950,3983,3978,0,0,23,,,,,,,0,0,0,20.00,-25.00,-166.00,0.00,0.00,-167.00,6,137.00,1.00,1.24,0.00,0.00,1.00,0,,,100,100,0,2,0,0,0,0,0,,,,,0.0,0.0,0
51.519332,5.857851,13.80,0.00,0.10,0.12,13.80,13.80,5.10,0.78,8404,2020-09-29 13:55:27.012,2020-09-29 15:55:27.012,10,0,0,16.066,51.519331,5.857850,0.00,0.00,0.10,-2.00,-2.70,-16.60,0,1,0,98,97,-11176,5546,16066,2951.50,35,GPS,1,0,0,0,0,0,0,1601387727011,3949,3950,3983,3978,0,0,23,,,,,,,0,0,0,20.00,-27.00,-166.00,0.00,0.00,-167.00,6,138.00,1.00,1.21,0.00,0.00,1.00,0,,,100,100,0,2,0,0,0,0,0,,,,,0.0,0.0,0
51.519332,5.857851,13.80,0.00,0.10,0.12,13.80,13.80,5.10,0.78,8520,2020-09-29 13:55:27.127,2020-09-29 15:55:27.127,10,0,0,16.066,51.519331,5.857850,0.00,0.00,0.10,-2.10,-2.80,-16.70,0,1,0,98,97,-11176,5546,16066,2951.50,35,GPS,1,0,0,0,0,0,0,1601387727127,3949,3950,3983,3978,0,0,23,,,,,,,0,0,0,21.00,-28.00,-167.00,0.00,0.00,-167.00,6,138.00,1.00,1.15,0.00,0.00,1.00,0,,,100,100,0,2,0,0,0,0,0,,,,,0.0,0.0,0
51.519332,5.857851,13.70,0.00,0.10,0.11,13.80,13.80,5.10,0.78,8616,2020-09-29 13:55:27.224,2020-09-29 15:55:27.224,11,0,0,16.066,51.519331,5.857850,0.00,0.00,0.10,-2.10,-2.70,-16.80,0,1,0,98,97,-11176,5546,16066,2951.50,35,GPS,1,0,0,0,0,0,0,1601387727223,3949,3950,3983,3978,0,0,23,,,,,,,0,0,0,21.00,-27.00,-168.00,0.00,0.00,-167.00,6,137.00,1.00,1.09,0.00,0.00,1.00,0,,,100,100,0,2,0,0,0,0,0,,,,,0.0,0.0,0
51.519332,5.857851,13.70,0.00,0.10,0.08,13.80,13.80,5.10,0.78,8704,2020-09-29 13:55:27.311,2020-09-29 15:55:27.311,11,0,0,16.066,51.519331,5.857850,0.00,0.00,0.10,-2.10,-2.50,-16.80,0,1,0,98,97,-11176,5546,16066,2951.50,35,GPS,1,0,0,0,0,0,0,1601387727311,3949,3950,3983,3978,0,0,23,,,,,,,0,0,0,21.00,-25.00,-168.00,0.00,0.00,-167.00,6,137.00,1.00,0.81,0.00,0.00,1.00,0,,,100,100,0,2,0,0,0,0,0,,,,,0.0,0.0,0
51.519332,5.857851,13.70,0.00,0.10,0.07,13.80,13.80,5.10,0.78,8807,2020-09-29 13:55:27.414,2020-09-29 15:55:27.414,11,0,0,16.066,51.519331,5.857850,0.00,0.00,0.10,-2.20,-2.10,-16.70,0,1,0,98,97,-11176,5546,16066,2951.50,35,GPS,1,0,0,0,0,0,0,1601387727414,3949,3950,3983,3978,0,0,23,,,,,,,0,0,0,22.00,-21.00,-167.00,0.00,0.00,-167.00,6,137.00,1.00,0.71,0.00,0.00,1.00,0,,,100,100,0,2,0,0,0,0,0,,,,,0.0,0.0,0
51.519331,5.857851,13.70,0.00,0.10,0.06,13.80,13.80,5.10,0.78,8915,2020-09-29 13:55:27.523,2020-09-29 15:55:27.523,11,0,0,16.066,51.519331,5.857850,0.00,0.00,0.10,-2.20,-1.80,-16.70,0,1,0,98,97,-11176,5546,16066,2951.50,35,GPS,1,0,0,0,0,0,0,1601387727522,3949,3950,3983,3978,0,0,23,,,,,,,0,0,0,22.00,-18.00,-167.00,0.00,0.00,-167.00,6,137.00,1.00,0.62,0.00,0.00,1.00,0,,,100,100,0,2,0,0,0,0,0,,,,,0.0,0.0,0
51.519331,5.857851,13.70,0.00,0.10,0.06,13.80,13.80,5.10,0.78,9011,2020-09-29 13:55:27.619,2020-09-29 15:55:27.619,11,0,0,16.066,51.519331,5.857850,0.00,0.00,0.10,-2.50,-1.90,-16.70,0,1,0,98,97,-11176,5546,16066,2951.50,35,GPS,1,0,0,0,0,0,0,1601387727618,3949,3950,3983,3978,0,0,23,,,,,,,0,0,0,25.00,-19.00,-167.00,0.00,0.00,-167.00,6,137.00,1.00,0.55,0.00,0.00,1.00,0,,,100,100,0,2,0,0,0,0,0,,,,,0.0,0.0,0
51.519331,5.857851,13.70,0.00,0.10,0.06,13.80,13.80,5.10,0.78,9113,2020-09-29 13:55:27.721,2020-09-29 15:55:27.721,11,0,0,16.066,51.519331,5.857850,0.00,0.00,0.10,-2.90,-2.20,-16.80,0,1,0,98,97,-11176,5546,16066,2951.50,35,GPS,1,0,0,0,0,0,0,1601387727720,3949,3950,3983,3978,0,0,23,,,,,,,0,0,0,29.00,-22.00,-168.00,0.00,0.00,-167.00,6,137.00,1.00,0.56,0.00,0.00,1.00,0,,,100,100,0,2,0,0,0,0,0,,,,,0.0,0.0,0
51.519331,5.857851,13.60,0.00,0.10,0.06,13.80,13.80,5.10,0.78,9200,2020-09-29 13:55:27.808,2020-09-29 15:55:27.808,12,0,0,15.993,51.519331,5.857850,0.00,0.00,0.10,-2.80,-2.40,-16.70,0,1,0,98,97,-11072,5546,15993,2951.50,35,GPS,1,0,0,0,0,0,0,1601387727807,3949,3950,3983,3978,0,0,23,,,,,,,0,0,0,28.00,-24.00,-167.00,0.00,0.00,-168.00,6,136.00,1.00,0.56,0.00,0.00,1.00,0,,,100,100,0,2,0,0,0,0,0,,,,,0.0,0.0,0
51.519331,5.857851,13.70,0.00,0.10,0.06,13.80,13.80,5.10,0.78,9314,2020-09-29 13:55:27.922,2020-09-29 15:55:27.922,12,0,0,15.993,51.519331,5.857850,0.00,0.00,0.10,-2.70,-2.30,-16.80,0,1,0,98,97,-11072,5546,15993,2951.50,35,GPS,1,0,0,0,0,0,0,1601387727921,3949,3950,3983,3978,0,0,23,,,,,,,0,0,0,27.00,-23.00,-168.00,0.00,0.00,-167.00,6,137.00,1.00,0.55,0.00,0.00,1.00,0,,,100,100,0,2,0,0,0,0,0,,,,,0.0,0.0,0
51.519331,5.857851,13.70,0.00,0.10,0.06,13.80,13.80,5.10,0.78,9405,2020-09-29 13:55:28.012,2020-09-29 15:55:28.012,12,0,0,15.993,51.519331,5.857850,0.00,0.00,0.10,-2.80,-2.60,-16.80,0,1,0,98,97,-11072,5546,15993,2951.50,35,GPS,1,0,0,0,0,0,0,1601387728012,3949,3950,3983,3978,0,0,23,,,,,,,0,0,0,28.00,-26.00,-168.00,0.00,0.00,-167.00,6,137.00,1.00,0.56,0.00,0.00,1.00,0,,,100,100,0,2,0,0,0,0,0,,,,,0.0,0.0,0
51.519331,5.857851,13.70,0.00,0.10,0.06,13.80,13.80,5.10,0.78,9513,2020-09-29 13:55:28.121,2020-09-29 15:55:28.121,12,0,0,15.993,51.519331,5.857850,0.00,0.00,0.10,-2.60,-2.70,-16.80,0,1,0,98,97,-11072,5546,15993,2951.50,35,GPS,1,0,0,0,0,0,0,1601387728120,3949,3950,3983,3978,0,0,23,,,,,,,0,0,0,26.00,-27.00,-168.00,0.00,0.00,-167.00,6,137.00,1.00,0.64,0.00,0.00,1.00,0,,,100,100,0,2,0,0,0,0,0,,,,,0.0,0.0,0
51.519331,5.857851,13.70,0.00,0.10,0.07,13.80,13.80,5.10,0.78,9610,2020-09-29 13:55:28.217,2020-09-29 15:55:28.217,12,0,0,15.993,51.519331,5.857850,0.00,0.00,0.10,-2.60,-2.60,-16.80,0,1,0,98,97,-11072,5546,15993,2951.50,35,GPS,1,0,0,0,0,0,0,1601387728217,3949,3950,3983,3978,0,0,23,,,,,,,0,0,0,26.00,-26.00,-168.00,0.00,0.00,-167.00,6,137.00,1.00,0.68,0.00,0.00,1.00,0,,,100,100,0,2,0,0,0,0,0,,,,,0.0,0.0,0
51.519331,5.857851,13.70,0.00,0.10,0.07,13.80,13.80,5.10,0.78,9700,2020-09-29 13:55:28.307,2020-09-29 15:55:28.307,12,0,0,15.993,51.519331,5.857850,0.00,0.00,0.10,-2.60,-2.70,-16.80,0,1,0,98,97,-11072,5546,15993,2951.50,35,GPS,1,0,0,0,0,0,0,1601387728307,3949,3950,3983,3978,0,0,23,,,,,,,0,0,0,26.00,-27.00,-168.00,0.00,0.00,-167.00,6,137.00,1.00,0.72,0.00,0.00,1.00,0,,,100,100,0,2,0,0,0,0,0,,,,,0.0,0.0,0
51.519332,5.857851,13.70,0.00,0.10,0.08,13.80,13.80,5.10,0.78,9797,2020-09-29 13:55:28.405,2020-09-29 15:55:28.405,12,0,0,15.993,51.519331,5.857850,0.00,0.00,0.10,-2.60,-2.90,-16.80,0,1,0,98,97,-11072,5546,15993,2951.50,35,GPS,1,0,0,0,0,0,0,1601387728404,3949,3950,3983,3978,0,0,23,,,,,,,0,0,0,26.00,-29.00,-168.00,0.00,0.00,-167.00,6,137.00,1.00,0.77,0.00,0.00,1.00,0,,,100,100,0,2,0,0,0,0,0,,,,,0.0,0.0,0
51.519332,5.857851,13.70,0.00,0.10,0.08,13.80,13.80,5.10,0.78,9910,2020-09-29 13:55:28.518,2020-09-29 15:55:28.518,12,0,0,15.993,51.519331,5.857850,0.00,0.00,0.10,-2.80,-2.70,-16.80,0,1,0,98,97,-11072,5546,15993,2951.50,35,GPS,1,0,0,0,0,0,0,1601387728517,3949,3950,3983,3978,0,0,23,,,,,,,0,0,0,28.00,-27.00,-168.00,0.00,0.00,-167.00,6,137.00,1.00,0.82,0.00,0.00,1.00,0,,,100,100,0,2,0,0,0,0,0,,,,,0.0,0.0,0
51.519332,5.857851,13.80,0.00,0.10,0.09,13.80,13.80,5.10,0.78,10014,2020-09-29 13:55:28.621,2020-09-29 15:55:28.621,12,0,0,15.993,51.519331,5.857850,0.00,0.00,0.10,-2.90,-2.70,-16.80,0,1,0,98,97,-11072,5546,15993,2951.50,35,GPS,1,0,0,0,0,0,0,1601387728621,3949,3950,3983,3978,0,0,23,,,,,,,0,0,0,29.00,-27.00,-168.00,0.00,0.00,-168.00,6,138.00,1.00,0.93,0.00,0.00,1.00,0,,,100,100,0,2,0,0,0,0,0,,,,,0.0,0.0,0
51.519332,5.857851,13.80,0.00,0.10,0.09,13.80,13.80,5.10,0.78,10110,2020-09-29 13:55:28.718,2020-09-29 15:55:28.718,12,0,0,15.993,51.519331,5.857850,0.00,0.00,0.10,-2.90,-2.90,-16.80,0,1,0,98,97,-11072,5546,15993,2951.50,35,GPS,1,0,0,0,0,0,0,1601387728717,3949,3950,3983,3978,0,0,23,,,,,,,0,0,0,29.00,-29.00,-168.00,0.00,0.00,-167.00,6,138.00,1.00,0.90,0.00,0.00,1.00,0,,,100,100,0,2,0,0,0,0,0,,,,,0.0,0.0,0
51.519331,5.857851,13.80,0.00,0.10,0.09,13.80,13.80,5.10,0.78,10207,2020-09-29 13:55:28.814,2020-09-29 15:55:28.814,12,0,0,16.017,51.519331,5.857850,0.00,0.00,0.10,-2.90,-3.00,-16.80,0,1,0,98,97,-11050,5546,16017,2951.50,35,GPS,1,0,0,0,0,0,0,1601387728814,3949,3950,3983,3978,0,0,23,,,,,,,0,0,0,29.00,-30.00,-168.00,0.00,0.00,-167.00,6,138.00,1.00,0.88,0.00,0.00,1.00,0,,,100,100,0,2,0,0,0,0,0,,,,,0.0,0.0,0
51.519331,5.857851,13.70,0.00,0.10,0.09,13.80,13.80,5.10,0.78,10295,2020-09-29 13:55:28.903,2020-09-29 15:55:28.903,12,0,0,16.017,51.519331,5.857850,0.00,0.00,0.10,-2.60,-2.80,-16.80,0,1,0,98,97,-11050,5546,16017,2951.50,35,GPS,1,0,0,0,0,0,0,1601387728902,3949,3950,3983,3978,0,0,23,,,,,,,0,0,0,26.00,-28.00,-168.00,0.00,0.00,-167.00,6,137.00,1.00,0.86,0.00,0.00,1.00,0,,,100,100,0,2,0,0,0,0,0,,,,,0.0,0.0,0
51.519331,5.857851,13.80,0.00,0.10,0.08,13.80,13.80,5.10,0.78,10395,2020-09-29 13:55:29.002,2020-09-29 15:55:29.002,12,0,0,16.017,51.519331,5.857850,0.00,0.00,0.10,-2.50,-3.00,-16.80,0,1,0,98,97,-11050,5546,16017,2951.50,35,GPS,1,0,0,0,0,0,0,1601387729002,3949,3950,3983,3978,0,0,23,,,,,,,0,0,0,25.00,-30.00,-168.00,0.00,0.00,-168.00,6,138.00,1.00,0.76,0.00,0.00,1.00,0,,,100,100,0,2,0,0,0,0,0,,,,,0.0,0.0,0
51.519331,5.857851,13.70,0.00,0.10,0.08,13.80,13.80,5.10,0.78,10494,2020-09-29 13:55:29.102,2020-09-29 15:55:29.102,12,0,0,16.017,51.519331,5.857850,0.00,0.00,0.10,-2.40,-3.10,-16.90,0,1,0,98,97,-11050,5546,16017,2951.50,35,GPS,1,0,0,0,0,0,0,1601387729101,3949,3950,3983,3978,0,0,23,,,,,,,0,0,0,24.00,-31.00,-169.00,0.00,0.00,-167.00,6,137.00,1.00,0.77,0.00,0.00,1.00,0,,,100,100,0,2,0,0,0,0,0,,,,,0.0,0.0,0
51.519331,5.857851,13.70,0.00,0.10,0.08,13.80,13.80,5.10,0.78,10618,2020-09-29 13:55:29.225,2020-09-29 15:55:29.225,12,0,0,16.017,51.519331,5.857850,0.00,0.00,0.10,-2.50,-3.10,-16.80,0,1,0,98,97,-11050,5546,16017,2951.50,35,GPS,1,0,0,0,0,0,0,1601387729225,3949,3950,3983,3978,0,0,23,,,,,,,0,0,0,25.00,-31.00,-168.00,0.00,0.00,-167.00,6,137.00,1.00,0.79,0.00,0.00,1.00,0,,,100,100,0,2,0,0,0,0,0,,,,,0.0,0.0,0
51.519331,5.857851,13.70,0.00,0.10,0.08,13.80,13.80,5.10,0.78,10697,2020-09-29 13:55:29.305,2020-09-29 15:55:29.305,12,0,0,16.017,51.519331,5.857850,0.00,0.00,0.10,-2.60,-2.90,-16.80,0,1,0,98,97,-11050,5546,16017,2951.50,35,GPS,1,0,0,0,0,0,0,1601387729304,3949,3950,3983,3978,0,0,23,,,,,,,0,0,0,26.00,-29.00,-168.00,0.00,0.00,-168.00,6,137.00,1.00,0.78,0.00,0.00,1.00,0,,,100,100,0,2,0,0,0,0,0,,,,,0.0,0.0,0
51.519331,5.857851,13.70,0.00,0.10,0.08,13.80,13.80,5.10,0.78,10795,2020-09-29 13:55:29.402,2020-09-29 15:55:29.403,12,0,0,16.017,51.519331,5.857850,0.00,0.00,0.10,-2.40,-3.10,-16.80,0,1,0,98,97,-11050,5546,16017,2951.50,35,GPS,1,0,0,0,0,0,0,1601387729402,3949,3950,3983,3978,0,0,23,,,,,,,0,0,0,24.00,-31.00,-168.00,0.00,0.00,-167.00,6,137.00,1.00,0.79,0.00,0.00,1.00,0,,,100,100,0,2,0,0,0,0,0,,,,,0.0,0.0,0
51.519332,5.857851,13.70,0.00,0.10,0.09,13.80,13.80,5.10,0.78,10906,2020-09-29 13:55:29.513,2020-09-29 15:55:29.513,12,0,0,16.017,51.519331,5.857850,0.00,0.00,0.10,-2.50,-3.20,-16.80,0,1,0,98,97,-11050,5546,16017,2951.50,35,GPS,1,0,0,0,0,0,0,1601387729513,3949,3950,3983,3978,0,0,23,,,,,,,0,0,0,25.00,-32.00,-168.00,0.00,0.00,-167.00,6,137.00,1.00,0.87,0.00,0.00,1.00,0,,,100,100,0,2,0,0,0,0,0,,,,,0.0,0.0,0
51.519332,5.857851,13.70,0.00,0.10,0.09,13.80,13.80,5.10,0.78,11010,2020-09-29 13:55:29.617,2020-09-29 15:55:29.617,12,0,0,16.017,51.519331,5.857850,0.00,0.00,0.10,-2.80,-3.00,-16.80,0,1,0,98,97,-11050,5546,16017,2951.50,35,GPS,1,0,0,0,0,0,0,1601387729617,3949,3950,3983,3978,0,0,23,,,,,,,0,0,0,28.00,-30.00,-168.00,0.00,0.00,-168.00,6,137.00,1.00,0.93,0.00,0.00,1.00,0,,,100,100,0,2,0,0,0,0,0,,,,,0.0,0.0,0
51.519332,5.857851,13.60,0.00,0.10,0.09,13.80,13.80,5.10,0.78,11096,2020-09-29 13:55:29.703,2020-09-29 15:55:29.703,12,0,0,16.017,51.519331,5.857850,0.00,0.00,0.10,-2.70,-3.10,-16.70,0,1,0,98,97,-11050,5546,16017,2951.50,35,GPS,1,0,0,0,0,0,0,1601387729703,3949,3950,3983,3978,0,0,23,,,,,,,0,0,0,27.00,-31.00,-167.00,0.00,0.00,-167.00,6,136.00,1.00,0.89,0.00,0.00,1.00,0,,,100,100,0,2,0,0,0,0,0,,,,,0.0,0.0,0
51.519331,5.857851,13.60,0.00,0.10,0.09,13.80,13.80,5.10,0.78,11196,2020-09-29 13:55:29.803,2020-09-29 15:55:29.803,11,0,0,16.012,51.519331,5.857850,0.00,0.00,0.10,-2.90,-3.10,-16.70,0,1,0,98,97,-10764,5546,16012,2951.50,35,GPS,1,0,0,0,0,0,0,1601387729803,3949,3950,3983,3978,0,0,23,,,,,,,0,0,0,29.00,-31.00,-167.00,0.00,0.00,-168.00,6,136.00,1.00,0.85,0.00,0.00,1.00,0,,,100,100,0,2,0,0,0,0,0,,,,,0.0,0.0,0
51.519331,5.857851,13.60,0.00,0.10,0.09,13.80,13.80,5.10,0.78,11297,2020-09-29 13:55:29.905,2020-09-29 15:55:29.905,11,0,0,16.012,51.519331,5.857850,0.00,0.00,0.10,-3.10,-3.20,-16.70,0,1,0,98,97,-10764,5546,16012,2951.50,35,GPS,1,0,0,0,0,0,0,1601387729904,3949,3950,3983,3978,0,0,23,,,,,,,0,0,0,31.00,-32.00,-167.00,0.00,0.00,-168.00,6,136.00,1.00,0.85,0.00,0.00,1.00,0,,,100,100,0,2,0,0,0,0,0,,,,,0.0,0.0,0
51.519331,5.857851,13.60,0.00,0.10,0.09,13.80,13.80,5.10,0.78,11407,2020-09-29 13:55:30.014,2020-09-29 15:55:30.014,11,0,0,16.012,51.519331,5.857850,0.00,0.00,0.10,-3.00,-3.20,-16.70,0,1,0,98,97,-10764,5546,16012,2951.50,35,GPS,1,0,0,0,0,0,0,1601387730014,3949,3950,3983,3978,0,0,23,,,,,,,0,0,0,30.00,-32.00,-167.00,0.00,0.00,-167.00,6,136.00,1.00,0.86,0.00,0.00,1.00,0,,,100,100,0,2,0,0,0,0,0,,,,,0.0,0.0,0
51.519331,5.857851,13.60,0.00,0.10,0.09,13.80,13.80,5.10,0.78,11518,2020-09-29 13:55:30.126,2020-09-29 15:55:30.126,11,0,0,16.012,51.519331,5.857850,0.00,0.00,0.10,-2.80,-3.00,-16.70,0,1,0,98,97,-10764,5546,16012,2951.50,35,GPS,1,0,0,0,0,0,0,1601387730125,3949,3950,3983,3978,0,0,23,,,,,,,0,0,0,28.00,-30.00,-167.00,0.00,0.00,-168.00,6,136.00,1.00,0.87,0.00,0.00,1.00,0,,,100,100,0,2,0,0,0,0,0,,,,,0.0,0.0,0
51.519331,5.857851,13.60,0.00,0.10,0.09,13.80,13.80,5.10,0.78,11611,2020-09-29 13:55:30.218,2020-09-29 15:55:30.219,11,0,0,16.012,51.519331,5.857850,0.00,0.00,0.10,-2.60,-2.70,-16.70,0,1,0,98,97,-10764,5546,16012,2951.50,35,GPS,1,0,0,0,0,0,0,1601387730218,3949,3950,3983,3978,0,0,23,,,,,,,0,0,0,26.00,-27.00,-167.00,0.00,0.00,-168.00,6,136.00,1.00,0.89,0.00,0.00,1.00,0,,,100,100,0,2,0,0,0,0,0,,,,,0.0,0.0,0
51.519332,5.857851,13.60,0.00,0.10,0.10,13.80,13.80,5.10,0.78,11704,2020-09-29 13:55:30.311,2020-09-29 15:55:30.311,11,0,0,16.012,51.519331,5.857850,0.00,0.00,0.10,-2.30,-2.80,-16.70,0,1,0,98,97,-10764,5546,16012,2951.50,35,GPS,1,0,0,0,0,0,0,1601387730311,3949,3950,3983,3978,0,0,23,,,,,,,0,0,0,23.00,-28.00,-167.00,0.00,0.00,-167.00,6,136.00,1.00,1.02,0.00,0.00,1.00,0,,,100,100,0,2,0,0,0,0,0,,,,,0.0,0.0,0
51.519332,5.857851,13.60,0.00,0.10,0.11,13.80,13.80,5.10,0.78,11798,2020-09-29 13:55:30.406,2020-09-29 15:55:30.406,11,0,0,16.012,51.519331,5.857850,0.00,0.00,0.10,-2.30,-3.10,-16.70,0,1,0,98,97,-10764,5546,16012,2951.50,35,GPS,1,0,0,0,0,0,0,1601387730405,3949,3950,3983,3978,0,0,23,,,,,,,0,0,0,23.00,-31.00,-167.00,0.00,0.00,-167.00,6,136.00,1.00,1.09,0.00,0.00,1.00,0,,,100,100,0,2,0,0,0,0,0,,,,,0.0,0.0,0
51.519332,5.857851,13.60,0.00,0.10,0.12,13.80,13.80,5.10,0.78,11899,2020-09-29 13:55:30.506,2020-09-29 15:55:30.506,11,0,0,16.012,51.519331,5.857850,0.00,0.00,0.10,-2.30,-3.30,-16.70,0,1,0,98,97,-10764,5546,16012,2951.50,35,GPS,1,0,0,0,0,0,0,1601387730506,3949,3950,3983,3978,0,0,23,,,,,,,0,0,0,23.00,-33.00,-167.00,0.00,0.00,-168.00,6,136.00,1.00,1.20,0.00,0.00,1.00,0,,,100,100,0,2,0,0,0,0,0,,,,,0.0,0.0,0
51.519332,5.857851,13.60,0.00,0.10,0.13,13.80,13.80,5.10,0.78,11995,2020-09-29 13:55:30.603,2020-09-29 15:55:30.603,11,0,0,16.012,51.519331,5.857850,0.00,0.00,0.10,-2.40,-3.50,-16.70,0,1,0,98,97,-10764,5546,16012,2951.50,35,GPS,1,0,0,0,0,0,0,1601387730602,3949,3950,3983,3978,0,0,23,,,,,,,0,0,0,24.00,-35.00,-167.00,0.00,0.00,-168.00,6,136.00,1.00,1.29,0.00,0.00,1.00,0,,,100,100,0,2,0,0,0,0,0,,,,,0.0,0.0,0
51.519332,5.857852,13.50,0.00,0.10,0.13,13.80,13.80,5.10,0.78,12095,2020-09-29 13:55:30.703,2020-09-29 15:55:30.703,11,0,0,16.012,51.519331,5.857850,0.00,0.00,0.10,-2.40,-3.60,-16.80,0,1,0,98,97,-10764,5546,16012,2951.50,35,GPS,1,0,0,0,0,0,0,1601387730702,3949,3950,3983,3978,0,0,23,,,,,,,0,0,0,24.00,-36.00,-168.00,0.00,0.00,-168.00,6,135.00,1.00,1.32,0.00,0.00,1.00,0,,,100,100,0,2,0,0,0,0,0,,,,,0.0,0.0,0
51.519332,5.857852,13.50,0.00,0.10,0.13,13.80,13.80,5.10,0.78,12195,2020-09-29 13:55:30.802,2020-09-29 15:55:30.803,12,0,0,16.017,51.519331,5.857850,0.00,0.00,0.10,-2.60,-3.60,-16.80,0,1,0,98,97,-10764,5546,16017,2951.50,35,GPS,1,0,0,0,0,0,0,1601387730802,3949,3950,3983,3978,0,0,23,,,,,,,0,0,0,26.00,-36.00,-168.00,0.00,0.00,-168.00,6,135.00,1.00,1.33,0.00,0.00,1.00,0,,,100,100,0,2,0,0,0,0,0,,,,,0.0,0.0,0
51.519332,5.857852,13.50,0.00,0.10,0.13,13.80,13.80,5.10,0.78,12305,2020-09-29 13:55:30.913,2020-09-29 15:55:30.913,12,0,0,16.017,51.519331,5.857850,0.00,0.00,0.10,-2.60,-3.60,-16.70,0,1,0,98,97,-10764,5546,16017,2951.50,35,GPS,1,0,0,0,0,0,0,1601387730912,3949,3950,3983,3978,0,0,23,,,,,,,0,0,0,26.00,-36.00,-167.00,0.00,0.00,-168.00,6,135.00,1.00,1.34,0.00,0.00,1.00,0,,,100,100,0,2,0,0,0,0,0,,,,,0.0,0.0,0
51.519332,5.857852,13.50,0.00,0.00,0.14,13.80,13.80,5.10,0.78,12405,2020-09-29 13:55:31.012,2020-09-29 15:55:31.012,12,0,0,16.017,51.519331,5.857850,0.00,0.00,0.00,-2.30,-3.70,-16.80,0,1,0,98,97,-10764,5546,16017,2951.50,35,GPS,1,0,0,0,0,0,0,1601387731012,3949,3950,3983,3978,0,0,23,,,,,,,0,0,0,23.00,-37.00,-168.00,0.00,0.00,-168.00,6,135.00,0.00,1.35,0.00,0.00,0.00,0,,,100,100,0,2,0,0,0,0,0,,,,,0.0,0.0,0
51.519332,5.857852,13.50,0.00,0.00,0.12,13.80,13.80,5.10,0.78,12507,2020-09-29 13:55:31.114,2020-09-29 15:55:31.115,12,0,0,16.017,51.519331,5.857850,0.00,0.00,0.00,-2.30,-3.50,-16.80,0,1,0,98,97,-10764,5546,16017,2951.50,35,GPS,1,0,0,0,0,0,0,1601387731114,3949,3950,3983,3978,0,0,23,,,,,,,0,0,0,23.00,-35.00,-168.00,0.00,0.00,-168.00,6,135.00,0.00,1.21,0.00,0.00,0.00,0,,,100,100,0,2,0,0,0,0,0,,,,,0.0,0.0,0
51.519332,5.857852,13.50,0.00,0.00,0.12,13.80,13.80,5.10,0.78,12602,2020-09-29 13:55:31.210,2020-09-29 15:55:31.210,12,0,0,16.017,51.519331,5.857850,0.00,0.00,0.00,-2.20,-3.40,-16.70,0,1,0,98,97,-10764,5546,16017,2951.50,35,GPS,1,0,0,0,0,0,0,1601387731209,3949,3950,3983,3978,0,0,23,,,,,,,0,0,0,22.00,-34.00,-167.00,0.00,0.00,-168.00,6,135.00,0.00,1.19,0.00,0.00,0.00,0,,,100,100,0,2,0,0,0,0,0,,,,,0.0,0.0,0
51.519332,5.857852,13.50,0.00,0.00,0.12,13.80,13.80,5.10,0.78,12700,2020-09-29 13:55:31.308,2020-09-29 15:55:31.308,12,0,0,16.017,51.519331,5.857850,0.00,0.00,0.00,-2.30,-3.50,-16.70,0,1,0,98,97,-10764,5546,16017,2951.50,35,GPS,1,0,0,0,0,0,0,1601387731307,3949,3950,3983,3978,0,0,23,,,,,,,0,0,0,23.00,-35.00,-167.00,0.00,0.00,-168.00,6,135.00,0.00,1.18,0.00,0.00,0.00,0,,,100,100,0,2,0,0,0,0,0,,,,,0.0,0.0,0
51.519332,5.857852,13.50,0.00,0.00,0.12,13.80,13.80,5.10,0.78,12796,2020-09-29 13:55:31.403,2020-09-29 15:55:31.403,12,0,0,16.017,51.519331,5.857850,0.00,0.00,0.00,-2.30,-3.50,-16.80,0,1,0,98,97,-10764,5546,16017,2951.50,35,GPS,1,0,0,0,0,0,0,1601387731403,3949,3950,3983,3978,0,0,23,,,,,,,0,0,0,23.00,-35.00,-168.00,0.00,0.00,-168.00,6,135.00,0.00,1.17,0.00,0.00,0.00,0,,,100,100,0,2,0,0,0,0,0,,,,,0.0,0.0,0
51.519332,5.857852,13.50,0.00,0.00,0.12,13.80,13.80,5.10,0.78,12910,2020-09-29 13:55:31.518,2020-09-29 15:55:31.518,12,0,0,16.017,51.519331,5.857850,0.00,0.00,0.00,-2.30,-3.60,-16.70,0,1,0,98,97,-10764,5546,16017,2951.50,35,GPS,1,0,0,0,0,0,0,1601387731517,3949,3950,3983,3978,0,0,23,,,,,,,0,0,0,23.00,-36.00,-167.00,0.00,0.00,-168.00,6,135.00,0.00,1.19,0.00,0.00,0.00,0,,,100,100,0,2,0,0,0,0,0,,,,,0.0,0.0,0
51.519332,5.857852,13.60,0.00,0.00,0.12,13.80,13.80,5.10,0.78,13017,2020-09-29 13:55:31.625,2020-09-29 15:55:31.625,12,0,0,16.017,51.519331,5.857850,0.00,0.00,0.00,-2.50,-3.70,-16.70,0,1,0,98,97,-10764,5546,16017,2951.50,35,GPS,1,0,0,0,0,0,0,1601387731624,3949,3950,3983,3978,0,0,23,,,,,,,0,0,0,25.00,-37.00,-167.00,0.00,0.00,-168.00,6,136.00,0.00,1.22,0.00,0.00,0.00,0,,,100,100,0,2,0,0,0,0,0,,,,,0.0,0.0,0
51.519332,5.857852,13.50,0.00,0.00,0.13,13.80,13.80,5.10,0.78,13117,2020-09-29 13:55:31.725,2020-09-29 15:55:31.725,12,0,0,16.017,51.519331,5.857850,0.00,0.00,0.00,-2.40,-3.70,-16.70,0,1,0,98,97,-10764,5546,16017,2951.50,35,GPS,1,0,0,0,0,0,0,1601387731724,3949,3950,3983,3978,0,0,23,,,,,,,0,0,0,24.00,-37.00,-167.00,0.00,0.00,-168.00,6,135.00,0.00,1.27,0.00,0.00,0.00,0,,,100,100,0,2,0,0,0,0,0,,,,,0.0,0.0,0
51.519332,5.857852,13.50,0.00,0.00,0.13,13.80,13.80,5.10,0.78,13215,2020-09-29 13:55:31.822,2020-09-29 15:55:31.822,12,0,0,15.988,51.519331,5.857850,0.00,0.00,0.00,-2.30,-3.80,-16.70,0,1,0,98,97,-10944,5546,15988,2951.50,35,GPS,1,0,0,0,0,0,0,1601387731822,3949,3950,3983,3978,0,0,23,,,,,,,0,0,0,23.00,-38.00,-167.00,0.00,0.00,-168.00,6,135.00,0.00,1.31,0.00,0.00,0.00,0,,,100,100,0,2,0,0,0,0,0,,,,,0.0,0.0,0
51.519332,5.857852,13.50,0.00,0.00,0.13,13.80,13.80,5.10,0.78,13320,2020-09-29 13:55:31.927,2020-09-29 15:55:31.927,12,0,0,15.988,51.519331,5.857850,0.00,0.00,0.00,-2.30,-3.80,-16.80,0,1,0,98,97,-10944,5546,15988,2951.50,35,GPS,1,0,0,0,0,0,0,1601387731927,3949,3950,3983,3978,0,0,23,,,,,,,0,0,0,23.00,-38.00,-168.00,0.00,0.00,-168.00,6,135.00,0.00,1.35,0.00,0.00,0.00,0,,,100,100,0,2,0,0,0,0,0,,,,,0.0,0.0,0
51.519332,5.857852,13.50,0.00,0.00,0.14,13.80,13.80,5.10,0.78,13416,2020-09-29 13:55:32.024,2020-09-29 15:55:32.024,12,0,0,15.988,51.519331,5.857850,0.00,0.00,0.00,-2.10,-3.70,-16.70,0,1,0,98,97,-10944,5546,15988,2951.50,35,GPS,1,0,0,0,0,0,0,1601387732023,3949,3950,3983,3978,0,0,23,,,,,,,0,0,0,21.00,-37.00,-167.00,0.00,0.00,-168.00,6,135.00,0.00,1.43,0.00,0.00,0.00,0,,,100,100,0,2,0,0,0,0,0,,,,,0.0,0.0,0
51.519332,5.857852,13.50,0.00,0.00,0.15,13.80,13.80,5.10,0.78,13520,2020-09-29 13:55:32.127,2020-09-29 15:55:32.128,12,0,0,15.988,51.519331,5.857850,0.00,0.00,0.00,-2.10,-3.70,-16.80,0,1,0,98,97,-10944,5546,15988,2951.50,35,GPS,1,0,0,0,0,0,0,1601387732127,3949,3950,3983,3978,0,0,23,,,,,,,0,0,0,21.00,-37.00,-168.00,0.00,0.00,-168.00,6,135.00,0.00,1.47,0.00,0.00,0.00,0,,,100,100,0,2,0,0,0,0,0,,,,,0.0,0.0,0
51.519332,5.857852,13.50,0.00,0.00,0.15,13.80,13.80,5.10,0.78,13616,2020-09-29 13:55:32.224,2020-09-29 15:55:32.224,12,0,0,15.988,51.519331,5.857850,0.00,0.00,0.00,-2.20,-3.70,-16.80,0,1,0,98,97,-10944,5546,15988,2951.50,35,GPS,1,0,0,0,0,0,0,1601387732223,3949,3950,3983,3978,0,0,23,,,,,,,0,0,0,22.00,-37.00,-168.00,0.00,0.00,-167.00,6,135.00,0.00,1.51,0.00,0.00,0.00,0,,,100,100,0,2,0,0,0,0,0,,,,,0.0,0.0,0
51.519332,5.857852,13.50,0.00,0.00,0.16,13.80,13.80,5.10,0.78,13697,2020-09-29 13:55:32.304,2020-09-29 15:55:32.304,12,0,0,15.988,51.519331,5.857850,0.00,0.00,0.00,-2.40,-3.60,-16.70,0,1,0,98,97,-10944,5546,15988,2951.50,35,GPS,1,0,0,0,0,0,0,1601387732304,4008,4005,4037,4032,0,0,23,,,,,,,0,0,0,24.00,-36.00,-167.00,0.00,0.00,-168.00,6,135.00,0.00,1.56,0.00,0.00,0.00,0,,,100,100,0,2,0,0,0,0,0,,,,,0.0,0.0,0
51.519332,5.857852,13.50,0.00,0.00,0.17,13.80,13.80,5.10,0.78,13817,2020-09-29 13:55:32.424,2020-09-29 15:55:32.424,12,0,0,15.988,51.519331,5.857850,0.00,0.00,0.00,-2.30,-3.70,-16.70,0,1,0,98,97,-10944,5546,15988,2951.50,35,GPS,1,0,0,0,0,0,0,1601387732424,4008,4005,4037,4032,0,0,23,,,,,,,0,0,0,23.00,-37.00,-167.00,0.00,0.00,-168.00,6,135.00,0.00,1.71,0.00,0.00,0.00,0,,,100,100,0,2,0,0,0,0,0,,,,,0.0,0.0,0
51.519332,5.857852,13.50,0.00,0.00,0.17,13.80,13.80,5.10,0.78,13916,2020-09-29 13:55:32.524,2020-09-29 15:55:32.524,12,0,0,15.988,51.519331,5.857850,0.00,0.00,0.00,-2.20,-3.80,-16.70,0,1,0,98,97,-10944,5546,15988,2951.50,35,GPS,1,0,0,0,0,0,0,1601387732523,4008,4005,4037,4032,0,0,23,,,,,,,0,0,0,22.00,-38.00,-167.00,0.00,0.00,-168.00,6,135.00,0.00,1.73,0.00,0.00,0.00,0,,,100,100,0,2,0,0,0,0,0,,,,,0.0,0.0,0
51.519332,5.857852,13.50,0.00,0.00,0.17,13.80,13.80,5.10,0.78,14018,2020-09-29 13:55:32.626,2020-09-29 15:55:32.626,12,0,0,15.988,51.519331,5.857850,0.00,0.00,0.00,-2.40,-3.90,-16.60,0,1,0,98,97,-10944,5546,15988,2951.50,35,GPS,1,0,0,0,0,0,0,1601387732625,4008,4005,4037,4032,0,0,23,,,,,,,0,0,0,24.00,-39.00,-166.00,0.00,0.00,-168.00,6,135.00,0.00,1.74,0.00,0.00,0.00,0,,,100,100,0,2,0,0,0,0,0,,,,,0.0,0.0,0
51.519332,5.857852,13.50,0.00,0.00,0.17,13.80,13.80,5.10,0.78,14118,2020-09-29 13:55:32.726,2020-09-29 15:55:32.726,12,0,0,15.988,51.519331,5.857850,0.00,0.00,0.00,-2.50,-3.90,-16.70,0,1,0,98,97,-10944,5546,15988,2951.50,35,GPS,1,0,0,0,0,0,0,1601387732725,4008,4005,4037,4032,0,0,23,,,,,,,0,0,0,25.00,-39.00,-167.00,0.00,0.00,-168.00,6,135.00,0.00,1.70,0.00,0.00,0.00,0,,,100,100,0,2,0,0,0,0,0,,,,,0.0,0.0,0
51.519332,5.857852,13.50,0.00,0.00,0.16,13.80,13.80,5.10,0.78,14200,2020-09-29 13:55:32.808,2020-09-29 15:55:32.808,12,0,0,15.978,51.519331,5.857850,0.00,0.00,0.00,-2.30,-4.20,-16.70,0,1,0,98,97,-10776,5546,15978,2951.50,35,GPS,1,0,0,0,0,0,0,1601387732807,4008,4005,4037,4032,0,0,23,,,,,,,0,0,0,23.00,-42.00,-167.00,0.00,0.00,-168.00,6,135.00,0.00,1.56,0.00,0.00,0.00,0,,,100,100,0,2,0,0,0,0,0,,,,,0.0,0.0,0
51.519332,5.857852,13.50,0.00,0.00,0.16,13.80,13.80,5.10,0.78,14327,2020-09-29 13:55:32.935,2020-09-29 15:55:32.935,12,0,0,15.978,51.519331,5.857850,0.00,0.00,0.00,-2.20,-4.10,-16.70,0,1,0,98,97,-10776,5546,15978,2951.50,35,GPS,1,0,0,0,0,0,0,1601387732934,4008,4005,4037,4032,0,0,23,,,,,,,0,0,0,22.00,-41.00,-167.00,0.00,0.00,-168.00,6,135.00,0.00,1.59,0.00,0.00,0.00,0,,,100,100,0,2,0,0,0,0,0,,,,,0.0,0.0,0
