latitude,longitude,altitude(m),ultrasonicHeight(m),speed(mps),distance(m),max_altitude(m),max_ascent(m),max_speed(mps),max_distance(m),time(millisecond),datetime(utc),datetime(local),satellites,pressure(Pa),temperature(F),voltage(v),home_latitude,home_longitude,velocityX(mps),velocityY(mps),velocityZ(mps),pitch(deg),roll(deg),yaw(deg),powerlevel,isflying,istakingphoto,remainPowerPercent,remainLifePercent,currentCurrent,currentElectricity,currentVoltage,batteryTemperature,dischargeCount,flightmode,isMotorsOn,isTakingVideo,Rc_elevator,Rc_aileron,Rc_throttle,Rc_rudder,Rc_gyro,timestamp,Battery_Cell1,Battery_Cell2,Battery_Cell3,Battery_Cell4,Battery_Cell5,Battery_Cell6,Dronetype,AppVersion,Planename,FlyControllerSerialNumber,RemoteSerialNumber,BatterySerialNumber,CENTER_BATTERY.productDate,CENTER_BATTERY.serialNo,CENTER_BATTERY.fullCapacity,CENTER_BATTERY.productDateRaw,pitchRaw,rollRaw,yawRaw,gimbalPitchRaw,gimbalRollRaw,gimbalYawRaw,flyState,altitudeRaw,speedRaw,distanceRaw,velocityXRaw,velocityYRaw,velocityZRaw,data_reuse,App_Tip,App_Warning,downlinkSignalQuality,uplinkSignalQuality,transmissionChannel,rcModeSwitch,rcHome,rcPause,rcTransform,rcJoystickMode,appMode,FlyControllerSerialNumber_legacy,RemoteSerialNumber_legacy,BatterySerialNumber_legacy,Battery2SerialNumber,frontAvoidDist,backAvoidDist,isBrakingToAvoid
51.519522,5.858087,0.20,0.00,2.60,0.12,0.20,0.20,2.60,0.12,0,2020-09-29 13:18:15.125,2020-09-29 15:18:15.125,19,0,0,12.713,51.519521,5.858086,0.00,0.00,-2.60,-1.50,1.70,157.40,0,1,0,97,100,-3836,3677,12713,2961.50,7,GPS,1,0,0,0,660,0,0,1601385495124,4229,4225,4224,0,0,0,13,Litchi_iOS_2.8.0,aladrian-MAVIC PRO,08RDEAJP01043R,08XUEB30061XN3,093AEB303309LC,,0,3760,0,15.00,17.00,1574.00,0.00,0.00,1581.00,6,2.00,26.00,1.24,0.00,0.00,-26.00,0,,,100,100,0,1,0,0,0,0,0,(null),(null),(null),(null),0.0,0.0,0
51.519522,5.858087,0.40,0.00,2.70,0.14,0.40,0.40,2.70,0.14,116,2020-09-29 13:18:15.240,2020-09-29 15:18:15.240,19,0,0,12.713,51.519521,5.858086,0.00,0.00,-2.70,-0.20,1.80,157.40,0,1,0,97,100,-3836,3677,12713,2961.50,7,GPS,1,0,0,0,660,0,0,1601385495240,4229,4225,4224,0,0,0,13,,,,,,,0,0,0,2.00,18.00,1574.00,0.00,0.00,1581.00,6,4.00,27.00,1.37,0.00,0.00,-27.00,0,,,100,100,0,1,0,0,0,0,0,,,,,0.0,0.0,0
51.519522,5.858087,0.70,1.50,3.10,0.15,0.70,0.70,3.10,0.15,213,2020-09-29 13:18:15.338,2020-09-29 15:18:15.338,19,0,0,12.713,51.519521,5.858086,0.00,0.00,-3.10,-0.10,1.50,157.60,0,1,0,97,100,-3836,3677,12713,2961.50,7,GPS,1,0,0,0,660,0,0,1601385495337,4229,4225,4224,0,0,0,13,,,,,,,0,0,0,1.00,15.00,1576.00,0.00,0.00,1581.00,6,7.00,31.00,1.49,0.00,0.00,-31.00,0,,,100,100,0,1,0,0,0,0,0,,,,,0.0,0.0,0
51.519522,5.858087,1.10,1.90,3.50,0.16,1.10,1.10,3.50,0.16,298,2020-09-29 13:18:15.422,2020-09-29 15:18:15.422,18,0,0,12.713,51.519521,5.858086,0.00,0.00,-3.50,-0.60,2.00,157.60,0,1,0,97,100,-3836,3677,12713,2961.50,7,GPS,1,0,0,0,660,0,0,1601385495422,4229,4225,4224,0,0,0,13,,,,,,,0,0,0,6.00,20.00,1576.00,0.00,0.00,1581.00,6,11.00,35.00,1.57,0.00,0.00,-35.00,0,,,100,100,0,1,0,0,0,0,0,,,,,0.0,0.0,0
51.519522,5.858087,1.40,2.30,3.80,0.17,1.40,1.40,3.80,0.17,416,2020-09-29 13:18:15.540,2020-09-29 15:18:15.540,18,0,0,12.713,51.519521,5.858086,0.10,0.00,-3.80,-1.40,1.60,157.70,0,1,0,97,100,-3836,3677,12713,2961.50,7,GPS,1,0,0,0,660,0,0,1601385495540,4229,4225,4224,0,0,0,13,,,,,,,0,0,0,14.00,16.00,1577.00,0.00,0.00,1581.00,6,14.00,38.01,1.65,1.00,0.00,-38.00,0,,,100,100,0,1,0,0,0,0,0,,,,,0.0,0.0,0
51.519522,5.858087,1.80,2.70,4.00,0.17,1.80,1.80,4.00,0.17,502,2020-09-29 13:18:15.626,2020-09-29 15:18:15.626,19,0,0,12.713,51.519521,5.858086,0.10,0.00,-4.00,-1.70,1.10,157.80,0,1,0,97,100,-3836,3677,12713,2961.50,7,GPS,1,0,0,0,660,0,0,1601385495626,4229,4225,4224,0,0,0,13,,,,,,,0,0,0,17.00,11.00,1578.00,0.00,0.00,1581.00,6,18.00,40.01,1.71,1.00,0.00,-40.00,0,,,100,100,0,1,0,0,0,0,0,,,,,0.0,0.0,0
51.519522,5.858087,2.30,3.10,4.10,0.18,2.30,2.30,4.10,0.18,590,2020-09-29 13:18:15.715,2020-09-29 15:18:15.715,19,0,0,12.713,51.519521,5.858086,0.10,0.00,-4.10,-2.50,1.00,157.90,0,1,0,97,100,-3836,3677,12713,2961.50,7,GPS,1,0,0,0,660,0,0,1601385495714,4229,4225,4224,0,0,0,13,,,,,,,0,0,0,25.00,10.00,1579.00,0.00,0.00,1581.00,6,23.00,41.01,1.80,1.00,0.00,-41.00,0,,,100,100,0,1,0,0,0,0,0,,,,,0.0,0.0,0
51.519523,5.858087,2.70,3.50,4.10,0.20,2.70,2.70,4.10,0.20,701,2020-09-29 13:18:15.825,2020-09-29 15:18:15.825,19,0,0,12.713,51.519521,5.858086,0.00,0.00,-4.10,-2.60,1.20,157.90,0,1,0,97,100,-3836,3677,12713,2961.50,7,GPS,1,0,0,0,660,0,0,1601385495825,4229,4225,4224,0,0,0,13,,,,,,,0,0,0,26.00,12.00,1579.00,0.00,0.00,1581.00,6,27.00,41.00,2.00,0.00,0.00,-41.00,0,,,100,100,0,1,0,0,0,0,0,,,,,0.0,0.0,0
51.519523,5.858087,3.10,3.90,4.10,0.22,3.10,3.10,4.10,0.22,791,2020-09-29 13:18:15.915,2020-09-29 15:18:15.915,19,0,0,12.713,51.519521,5.858086,0.00,0.00,-4.10,-2.70,1.40,157.90,0,1,0,97,100,-3836,3677,12713,2961.50,7,GPS,1,0,0,0,0,0,0,1601385495915,4229,4225,4224,0,0,0,13,,,,,,,0,0,0,27.00,14.00,1579.00,0.00,0.00,1581.00,6,31.00,41.00,2.19,0.00,0.00,-41.00,0,,,100,100,0,1,0,0,0,0,0,,,,,0.0,0.0,0
51.519523,5.858087,3.50,4.40,4.00,0.24,3.50,3.50,4.10,0.24,900,2020-09-29 13:18:16.024,2020-09-29 15:18:16.025,18,0,0,12.713,51.519521,5.858086,0.00,0.00,-4.00,-2.90,1.80,158.10,0,1,0,97,100,-3836,3677,12713,2961.50,7,GPS,1,0,0,0,0,0,0,1601385496024,4229,4225,4224,0,0,0,13,,,,,,,0,0,0,29.00,18.00,1581.00,0.00,0.00,1581.00,6,35.00,40.00,2.35,0.00,0.00,-40.00,0,,,100,100,0,1,0,0,0,0,0,,,,,0.0,0.0,0
51.519523,5.858087,3.90,4.80,3.70,0.25,3.90,3.90,4.10,0.25,1004,2020-09-29 13:18:16.129,2020-09-29 15:18:16.129,18,0,0,12.713,51.519521,5.858086,0.00,0.00,-3.70,-2.90,2.10,158.10,0,1,0,97,100,-3836,3677,12713,2961.50,7,GPS,1,0,0,0,0,0,0,1601385496128,4229,4225,4224,0,0,0,13,,,,,,,0,0,0,29.00,21.00,1581.00,0.00,0.00,1581.00,6,39.00,37.00,2.50,0.00,0.00,-37.00,0,,,100,100,0,1,0,0,0,0,0,,,,,11.3,0.0,0
51.519523,5.858086,4.30,5.20,3.50,0.26,4.30,4.30,4.10,0.26,1106,2020-09-29 13:18:16.231,2020-09-29 15:18:16.231,18,0,0,12.713,51.519521,5.858086,0.00,0.00,-3.50,-2.70,1.90,158.10,0,1,0,97,100,-3836,3677,12713,2961.50,7,GPS,1,0,0,0,0,0,0,1601385496230,4229,4225,4224,0,0,0,13,,,,,,,0,0,0,27.00,19.00,1581.00,0.00,0.00,1581.00,6,43.00,35.00,2.63,0.00,0.00,-35.00,0,,,100,100,0,1,0,0,0,0,0,,,,,11.3,0.0,0
51.519523,5.858086,4.60,5.50,3.20,0.28,4.60,4.60,4.10,0.28,1202,2020-09-29 13:18:16.327,2020-09-29 15:18:16.327,18,0,0,12.713,51.519521,5.858086,0.00,0.00,-3.20,-2.70,2.00,158.10,0,1,0,97,100,-3836,3677,12713,2961.50,7,GPS,1,0,0,0,0,0,0,1601385496326,4229,4225,4224,0,0,0,13,,,,,,,0,0,0,27.00,20.00,1581.00,0.00,0.00,1581.00,6,46.00,32.00,2.77,0.00,0.00,-32.00,0,,,100,100,0,1,0,0,0,0,0,,,,,0.0,0.0,0
51.519523,5.858086,4.90,5.90,2.80,0.28,4.90,4.90,4.10,0.28,1300,2020-09-29 13:18:16.424,2020-09-29 15:18:16.424,19,0,0,12.713,51.519521,5.858086,0.00,0.00,-2.80,-2.80,2.40,158.10,0,1,0,97,100,-3836,3677,12713,2961.50,7,GPS,1,0,0,0,0,0,0,1601385496424,4229,4225,4224,0,0,0,13,,,,,,,0,0,0,28.00,24.00,1581.00,0.00,0.00,1581.00,6,49.00,28.00,2.85,0.00,0.00,-28.00,0,,,100,100,0,1,0,0,0,0,0,,,,,0.0,0.0,0
51.519524,5.858086,5.10,6.20,2.30,0.29,5.10,5.10,4.10,0.29,1400,2020-09-29 13:18:16.524,2020-09-29 15:18:16.524,19,0,0,12.713,51.519521,5.858086,0.00,0.00,-2.30,-2.90,2.70,158.10,0,1,0,97,100,-3836,3677,12713,2961.50,7,GPS,1,0,0,0,0,0,0,1601385496524,4229,4225,4224,0,0,0,13,,,,,,,0,0,0,29.00,27.00,1581.00,0.00,0.00,1581.00,6,51.00,23.00,2.94,0.00,0.00,-23.00,0,,,100,100,0,1,0,0,0,0,0,,,,,0.0,0.0,0
51.519524,5.858086,5.40,6.40,1.90,0.31,5.40,5.40,4.10,0.31,1500,2020-09-29 13:18:16.625,2020-09-29 15:18:16.625,19,0,0,12.713,51.519521,5.858086,0.00,0.00,-1.90,-3.20,2.70,158.10,0,1,0,97,100,-3836,3677,12713,2961.50,7,GPS,1,0,0,0,0,0,0,1601385496624,4229,4225,4224,0,0,0,13,,,,,,,0,0,0,32.00,27.00,1581.00,0.00,0.00,1581.00,6,54.00,19.00,3.07,0.00,0.00,-19.00,0,,,100,100,0,1,0,0,0,0,0,,,,,0.0,0.0,0
51.519524,5.858086,5.50,6.60,1.50,0.32,5.50,5.50,4.10,0.32,1604,2020-09-29 13:18:16.728,2020-09-29 15:18:16.728,19,0,0,11.852,51.519521,5.858086,0.00,0.00,-1.50,-3.70,2.60,158.00,0,1,0,97,100,-11802,3673,11852,2971.50,7,GPS,1,0,0,0,0,0,0,1601385496728,4229,4225,4224,0,0,0,13,,,,,,,0,0,0,37.00,26.00,1580.00,0.00,0.00,1581.00,6,55.00,15.00,3.21,0.00,0.00,-15.00,0,,,100,100,0,1,0,0,0,0,0,,,,,0.0,0.0,0
51.519524,5.858087,5.70,6.80,1.10,0.33,5.70,5.70,4.10,0.33,1707,2020-09-29 13:18:16.831,2020-09-29 15:18:16.832,19,0,0,11.852,51.519521,5.858086,0.10,0.00,-1.10,-3.90,2.60,158.00,0,1,0,97,100,-11802,3673,11852,2971.50,7,GPS,1,0,0,0,0,0,0,1601385496831,4229,4225,4224,0,0,0,13,,,,,,,0,0,0,39.00,26.00,1580.00,0.00,0.00,1581.00,6,57.00,11.05,3.31,1.00,0.00,-11.00,0,,,100,100,0,1,0,0,0,0,0,,,,,0.0,0.0,0
51.519524,5.858087,5.80,7.00,0.61,0.34,5.80,5.80,4.10,0.34,1803,2020-09-29 13:18:16.927,2020-09-29 15:18:16.928,19,0,0,11.852,51.519521,5.858086,0.10,0.00,-0.60,-4.00,2.90,158.00,0,1,0,97,100,-11802,3673,11852,2971.50,7,GPS,1,0,0,0,0,0,0,1601385496927,4229,4225,4224,0,0,0,13,,,,,,,0,0,0,40.00,29.00,1580.00,0.00,0.00,1581.00,6,58.00,6.08,3.42,1.00,0.00,-6.00,0,,,100,100,0,1,0,0,0,0,0,,,,,0.0,0.0,0
51.519524,5.858087,5.80,7.10,0.32,0.34,5.80,5.80,4.10,0.34,1903,2020-09-29 13:18:17.028,2020-09-29 15:18:17.028,19,0,0,11.852,51.519521,5.858086,0.10,0.00,-0.30,-3.90,3.00,158.00,0,1,0,97,100,-11802,3673,11852,2971.50,7,GPS,1,0,0,0,0,0,0,1601385497027,4229,4225,4224,0,0,0,13,,,,,,,0,0,0,39.00,30.00,1580.00,0.00,0.00,1581.00,6,58.00,3.16,3.45,1.00,0.00,-3.00,0,,,100,100,0,1,0,0,0,0,0,,,,,0.0,0.0,0
51.519524,5.858087,5.80,7.10,0.10,0.35,5.80,5.80,4.10,0.35,2001,2020-09-29 13:18:17.125,2020-09-29 15:18:17.125,19,0,0,11.852,51.519521,5.858086,0.10,0.00,0.00,-3.70,3.00,157.90,0,1,0,97,100,-11802,3673,11852,2971.50,7,GPS,1,0,0,0,0,0,0,1601385497125,4229,4225,4224,0,0,0,13,,,,,,,0,0,0,37.00,30.00,1579.00,0.00,0.00,1581.00,6,58.00,1.00,3.48,1.00,0.00,0.00,0,,,100,100,0,1,0,0,0,0,0,,,,,0.0,0.0,0
51.519524,5.858087,5.80,7.20,0.10,0.35,5.80,5.80,4.10,0.35,2101,2020-09-29 13:18:17.225,2020-09-29 15:18:17.225,19,0,0,11.852,51.519521,5.858086,0.10,0.00,0.00,-3.60,3.10,157.90,0,1,0,97,100,-11802,3673,11852,2971.50,7,GPS,1,0,0,0,0,0,0,1601385497225,4229,4225,4224,0,0,0,13,,,,,,,0,0,0,36.00,31.00,1579.00,0.00,0.00,1581.00,6,58.00,1.00,3.46,1.00,0.00,0.00,0,,,100,100,0,1,0,0,0,0,0,,,,,0.0,0.0,0
51.519524,5.858087,5.80,7.20,0.14,0.35,5.80,5.80,4.10,0.35,2202,2020-09-29 13:18:17.326,2020-09-29 15:18:17.326,19,0,0,11.852,51.519521,5.858086,0.10,0.00,0.10,-3.70,2.90,158.00,0,1,0,97,100,-11802,3673,11852,2971.50,7,GPS,1,0,0,0,0,0,0,1601385497326,4229,4225,4224,0,0,0,13,,,,,,,0,0,0,37.00,29.00,1580.00,0.00,0.00,1581.00,6,58.00,1.41,3.46,1.00,0.00,1.00,0,,,100,100,0,1,0,0,0,0,0,,,,,0.0,0.0,0
51.519524,5.858087,5.80,7.30,0.10,0.35,5.80,5.80,4.10,0.35,2299,2020-09-29 13:18:17.424,2020-09-29 15:18:17.424,19,0,0,11.852,51.519521,5.858086,0.10,0.00,0.00,-4.00,3.00,158.00,0,1,0,97,100,-11802,3673,11852,2971.50,7,GPS,1,0,0,0,0,0,0,1601385497423,4229,4225,4224,0,0,0,13,,,,,,,0,0,0,40.00,30.00,1580.00,0.00,0.00,1581.00,6,58.00,1.00,3.49,1.00,0.00,0.00,0,,,100,100,0,1,0,0,0,0,0,,,,,0.0,0.0,0
51.519524,5.858087,5.80,7.30,0.10,0.35,5.80,5.80,4.10,0.35,2399,2020-09-29 13:18:17.524,2020-09-29 15:18:17.524,19,0,0,11.852,51.519521,5.858086,0.10,0.00,0.00,-4.20,3.00,158.00,0,1,0,97,100,-11802,3673,11852,2971.50,7,GPS,1,0,0,0,0,0,0,1601385497523,4229,4225,4224,0,0,0,13,,,,,,,0,0,0,42.00,30.00,1580.00,0.00,0.00,1581.00,6,58.00,1.00,3.51,1.00,0.00,0.00,0,,,100,100,0,1,0,0,0,0,0,,,,,0.0,0.0,0
51.519524,5.858087,5.80,7.30,0.10,0.36,5.80,5.80,4.10,0.36,2500,2020-09-29 13:18:17.625,2020-09-29 15:18:17.625,19,0,0,11.852,51.519521,5.858086,0.10,0.00,0.00,-4.40,3.00,158.00,0,1,0,97,100,-11802,3673,11852,2971.50,7,GPS,1,0,0,0,0,0,0,1601385497624,4229,4225,4224,0,0,0,13,,,,,,,0,0,0,44.00,30.00,1580.00,0.00,0.00,1581.00,6,58.00,1.00,3.55,1.00,0.00,0.00,0,,,100,100,0,1,0,0,0,0,0,,,,,0.0,0.0,0
51.519524,5.858087,5.80,7.40,0.00,0.36,5.80,5.80,4.10,0.36,2593,2020-09-29 13:18:17.717,2020-09-29 15:18:17.717,19,0,0,11.852,51.519521,5.858086,0.00,0.00,0.00,-4.40,3.20,158.00,0,1,0,97,100,-11802,3673,11852,2971.50,7,GPS,1,0,0,0,0,0,0,1601385497717,4229,4225,4224,0,0,0,13,,,,,,,0,0,0,44.00,32.00,1580.00,0.00,0.00,1581.00,6,58.00,0.00,3.56,0.00,0.00,0.00,0,,,100,100,0,1,0,0,0,0,0,,,,,0.0,0.0,0
51.519524,5.858087,5.80,7.40,0.00,0.36,5.80,5.80,4.10,0.36,2702,2020-09-29 13:18:17.827,2020-09-29 15:18:17.827,19,0,0,11.852,51.519521,5.858086,0.00,0.00,0.00,-4.50,3.40,157.90,0,1,0,97,100,-11802,3673,11852,2971.50,7,GPS,1,0,0,0,0,0,0,1601385497826,4229,4225,4224,0,0,0,13,,,,,,,0,0,0,45.00,34.00,1579.00,0.00,0.00,1581.00,6,58.00,0.00,3.60,0.00,0.00,0.00,0,,,100,100,0,1,0,0,0,0,0,,,,,0.0,0.0,0
51.519524,5.858087,5.80,7.40,0.00,0.36,5.80,5.80,4.10,0.36,2796,2020-09-29 13:18:17.920,2020-09-29 15:18:17.920,19,0,0,11.852,51.519521,5.858086,0.00,0.00,0.00,-4.40,3.30,157.90,0,1,0,97,100,-11802,3673,11852,2971.50,7,GPS,1,0,0,0,0,0,0,1601385497920,4229,4225,4224,0,0,0,13,,,,,,,0,0,0,44.00,33.00,1579.00,0.00,0.00,1581.00,6,58.00,0.00,3.59,0.00,0.00,0.00,0,,,100,100,0,1,0,0,0,0,0,,,,,0.0,0.0,0
51.519524,5.858087,5.80,7.40,0.00,0.36,5.80,5.80,4.10,0.36,2894,2020-09-29 13:18:18.018,2020-09-29 15:18:18.019,19,0,0,11.852,51.519521,5.858086,0.00,0.00,0.00,-4.40,3.00,157.90,0,1,0,97,100,-11802,3673,11852,2971.50,7,GPS,1,0,0,0,0,0,0,1601385498018,4229,4225,4224,0,0,0,13,,,,,,,0,0,0,44.00,30.00,1579.00,0.00,0.00,1581.00,6,58.00,0.00,3.57,0.00,0.00,0.00,0,,,100,100,0,1,0,0,0,0,0,,,,,0.0,0.0,0
51.519524,5.858087,5.90,7.40,0.00,0.35,5.90,5.90,4.10,0.36,2993,2020-09-29 13:18:18.117,2020-09-29 15:18:18.117,19,0,0,11.852,51.519521,5.858086,0.00,0.00,0.00,-4.10,2.90,157.90,0,1,0,97,100,-11802,3673,11852,2971.50,7,GPS,1,0,0,0,0,0,0,1601385498117,4229,4225,4224,0,0,0,13,,,,,,,0,0,0,41.00,29.00,1579.00,0.00,0.00,1581.00,6,59.00,0.00,3.51,0.00,0.00,0.00,0,,,100,100,0,1,0,0,0,0,0,,,,,0.0,0.0,0
51.519524,5.858087,5.90,7.40,0.00,0.34,5.90,5.90,4.10,0.36,3095,2020-09-29 13:18:18.220,2020-09-29 15:18:18.220,19,0,0,11.852,51.519521,5.858086,0.00,0.00,0.00,-3.70,2.50,157.90,0,1,0,97,100,-11802,3673,11852,2971.50,7,GPS,1,0,0,0,0,0,0,1601385498219,4229,4225,4224,0,0,0,13,,,,,,,0,0,0,37.00,25.00,1579.00,0.00,0.00,1581.00,6,59.00,0.00,3.41,0.00,0.00,0.00,0,,,100,100,0,1,0,0,0,0,0,,,,,0.0,0.0,0
51.519524,5.858087,5.90,7.50,0.00,0.33,5.90,5.90,4.10,0.36,3195,2020-09-29 13:18:18.319,2020-09-29 15:18:18.319,19,0,0,11.852,51.519521,5.858086,0.00,0.00,0.00,-3.50,2.50,158.00,0,1,0,97,100,-11802,3673,11852,2971.50,7,GPS,1,0,0,0,0,0,0,1601385498319,4229,4225,4224,0,0,0,13,,,,,,,0,0,0,35.00,25.00,1580.00,0.00,0.00,1581.00,6,59.00,0.00,3.30,0.00,0.00,0.00,0,,,100,100,0,1,0,0,0,0,0,,,,,0.0,0.0,0
51.519524,5.858087,5.90,7.50,0.00,0.32,5.90,5.90,4.10,0.36,3302,2020-09-29 13:18:18.426,2020-09-29 15:18:18.427,19,0,0,11.852,51.519521,5.858086,0.00,0.00,0.00,-3.20,2.50,158.00,0,1,0,97,100,-11802,3673,11852,2971.50,7,GPS,1,0,0,0,0,0,0,1601385498426,4229,4225,4224,0,0,0,13,,,,,,,0,0,0,32.00,25.00,1580.00,0.00,0.00,1581.00,6,59.00,0.00,3.20,0.00,0.00,0.00,0,,,100,100,0,1,0,0,0,0,0,,,,,0.0,0.0,0
51.519524,5.858087,5.90,7.50,0.10,0.31,5.90,5.90,4.10,0.36,3408,2020-09-29 13:18:18.532,2020-09-29 15:18:18.532,19,0,0,11.852,51.519521,5.858086,-0.10,0.00,0.00,-2.90,2.70,158.00,0,1,0,97,100,-11802,3673,11852,2971.50,7,GPS,1,0,0,0,0,0,0,1601385498532,4229,4225,4224,0,0,0,13,,,,,,,0,0,0,29.00,27.00,1580.00,0.00,0.00,1581.00,6,59.00,1.00,3.09,-1.00,0.00,0.00,0,,,100,100,0,1,0,0,0,0,0,,,,,0.0,0.0,0
51.519524,5.858086,5.90,7.50,0.10,0.29,5.90,5.90,4.10,0.36,3501,2020-09-29 13:18:18.626,2020-09-29 15:18:18.626,19,0,0,11.852,51.519521,5.858086,-0.10,0.00,0.00,-2.60,2.70,158.10,0,1,0,97,100,-11802,3673,11852,2971.50,7,GPS,1,0,0,0,0,0,0,1601385498625,4229,4225,4224,0,0,0,13,,,,,,,0,0,0,26.00,27.00,1581.00,0.00,0.00,1581.00,6,59.00,1.00,2.94,-1.00,0.00,0.00,0,,,100,100,0,1,0,0,0,0,0,,,,,0.0,0.0,0
51.519523,5.858086,5.90,7.50,0.10,0.28,5.90,5.90,4.10,0.36,3605,2020-09-29 13:18:18.730,2020-09-29 15:18:18.730,19,0,0,12.282,51.519521,5.858086,-0.10,0.00,0.00,-2.30,2.50,158.10,0,1,0,97,100,-7200,3665,12282,2971.50,7,GPS,1,0,0,0,0,0,0,1601385498729,4229,4225,4224,0,0,0,13,,,,,,,0,0,0,23.00,25.00,1581.00,0.00,0.00,1581.00,6,59.00,1.00,2.79,-1.00,0.00,0.00,0,,,100,100,0,1,0,0,0,0,0,,,,,0.0,0.0,0
51.519523,5.858086,5.90,7.50,0.10,0.27,5.90,5.90,4.10,0.36,3692,2020-09-29 13:18:18.817,2020-09-29 15:18:18.817,19,0,0,12.282,51.519521,5.858086,-0.10,0.00,0.00,-2.10,2.30,158.20,0,1,0,97,100,-7200,3665,12282,2971.50,7,GPS,1,0,0,0,0,0,0,1601385498816,4229,4225,4224,0,0,0,13,,,,,,,0,0,0,21.00,23.00,1582.00,0.00,0.00,1581.00,6,59.00,1.00,2.65,-1.00,0.00,0.00,0,,,100,100,0,1,0,0,0,0,0,,,,,0.0,0.0,0
51.519523,5.858086,5.90,7.50,0.10,0.25,5.90,5.90,4.10,0.36,3835,2020-09-29 13:18:18.960,2020-09-29 15:18:18.960,19,0,0,12.282,51.519521,5.858086,-0.10,0.00,0.00,-2.00,2.10,158.20,0,1,0,97,100,-7200,3665,12282,2971.50,7,GPS,1,0,0,0,0,0,0,1601385498959,4229,4225,4224,0,0,0,13,,,,,,,0,0,0,20.00,21.00,1582.00,0.00,0.00,1581.00,6,59.00,1.00,2.54,-1.00,0.00,0.00,0,,,100,100,0,1,0,0,0,0,0,,,,,0.0,0.0,0
51.519523,5.858086,5.90,7.50,0.10,0.24,5.90,5.90,4.10,0.36,3901,2020-09-29 13:18:19.026,2020-09-29 15:18:19.026,19,0,0,12.282,51.519521,5.858086,-0.10,0.00,0.00,-2.00,2.10,158.20,0,1,0,97,100,-7200,3665,12282,2971.50,7,GPS,1,0,0,0,0,0,0,1601385499025,4229,4225,4224,0,0,0,13,,,,,,,0,0,0,20.00,21.00,1582.00,0.00,0.00,1581.00,6,59.00,1.00,2.45,-1.00,0.00,0.00,0,,,100,100,0,1,0,0,0,0,0,,,,,0.0,0.0,0
51.519523,5.858086,5.90,7.50,0.10,0.24,5.90,5.90,4.10,0.36,4000,2020-09-29 13:18:19.124,2020-09-29 15:18:19.125,19,0,0,12.282,51.519521,5.858086,-0.10,0.00,0.00,-1.90,2.00,158.20,0,1,0,97,100,-7200,3665,12282,2971.50,7,GPS,1,0,0,0,0,0,0,1601385499124,4229,4225,4224,0,0,0,13,,,,,,,0,0,0,19.00,20.00,1582.00,0.00,0.00,1581.00,6,59.00,1.00,2.38,-1.00,0.00,0.00,0,,,100,100,0,1,0,0,0,0,0,,,,,0.0,0.0,0
51.519523,5.858086,5.90,7.50,0.10,0.23,5.90,5.90,4.10,0.36,4102,2020-09-29 13:18:19.226,2020-09-29 15:18:19.226,19,0,0,12.282,51.519521,5.858086,-0.10,0.00,0.00,-2.00,1.90,158.20,0,1,0,97,100,-7200,3665,12282,2971.50,7,GPS,1,0,0,0,0,0,0,1601385499226,4229,4225,4224,0,0,0,13,,,,,,,0,0,0,20.00,19.00,1582.00,0.00,0.00,1581.00,6,59.00,1.00,2.32,-1.00,0.00,0.00,0,,,100,100,0,1,0,0,0,0,0,,,,,0.0,0.0,0
51.519523,5.858086,5.90,7.50,0.00,0.23,5.90,5.90,4.10,0.36,4202,2020-09-29 13:18:19.327,2020-09-29 15:18:19.327,19,0,0,12.282,51.519521,5.858086,0.00,0.00,0.00,-2.10,2.00,158.10,0,1,0,97,100,-7200,3665,12282,2971.50,7,GPS,1,0,0,0,0,0,0,1601385499326,4229,4225,4224,0,0,0,13,,,,,,,0,0,0,21.00,20.00,1581.00,0.00,0.00,1581.00,6,59.00,0.00,2.29,0.00,0.00,0.00,0,,,100,100,0,1,0,0,0,0,0,,,,,0.0,0.0,0
51.519523,5.858086,5.90,7.50,0.00,0.22,5.90,5.90,4.10,0.36,4317,2020-09-29 13:18:19.441,2020-09-29 15:18:19.441,19,0,0,12.282,51.519521,5.858086,0.00,0.00,0.00,-2.20,2.00,158.10,0,1,0,97,100,-7200,3665,12282,2971.50,7,GPS,1,0,0,0,0,0,0,1601385499441,4229,4225,4224,0,0,0,13,,,,,,,0,0,0,22.00,20.00,1581.00,0.00,0.00,1581.00,6,59.00,0.00,2.25,0.00,0.00,0.00,0,,,100,100,0,1,0,0,0,0,0,,,,,0.0,0.0,0
51.519523,5.858086,5.90,7.50,0.00,0.22,5.90,5.90,4.10,0.36,4404,2020-09-29 13:18:19.529,2020-09-29 15:18:19.529,19,0,0,12.282,51.519521,5.858086,0.00,0.00,0.00,-2.40,1.90,158.10,0,1,0,97,100,-7200,3665,12282,2971.50,7,GPS,1,0,0,0,0,0,0,1601385499528,4229,4225,4224,0,0,0,13,,,,,,,0,0,0,24.00,19.00,1581.00,0.00,0.00,1581.00,6,59.00,0.00,2.22,0.00,0.00,0.00,0,,,100,100,0,1,0,0,0,0,0,,,,,0.0,0.0,0
51.519523,5.858086,5.90,7.50,0.00,0.22,5.90,5.90,4.10,0.36,4496,2020-09-29 13:18:19.621,2020-09-29 15:18:19.621,19,0,0,12.282,51.519521,5.858086,0.00,0.00,0.00,-2.40,2.10,158.10,0,1,0,97,100,-7200,3665,12282,2971.50,7,GPS,1,0,0,0,0,0,0,1601385499620,4229,4225,4224,0,0,0,13,,,,,,,0,0,0,24.00,21.00,1581.00,0.00,0.00,1581.00,6,59.00,0.00,2.23,0.00,0.00,0.00,0,,,100,100,0,1,0,0,0,0,0,,,,,0.0,0.0,0
51.519523,5.858086,5.90,7.50,0.00,0.23,5.90,5.90,4.10,0.36,4618,2020-09-29 13:18:19.743,2020-09-29 15:18:19.743,19,0,0,12.282,51.519521,5.858086,0.00,0.00,0.00,-2.50,2.30,158.20,0,1,0,97,100,-7200,3665,12282,2971.50,7,GPS,1,0,0,0,0,0,0,1601385499742,4229,4225,4224,0,0,0,13,,,,,,,0,0,0,25.00,23.00,1582.00,0.00,0.00,1581.00,6,59.00,0.00,2.26,0.00,0.00,0.00,0,,,100,100,0,1,0,0,0,0,0,,,,,0.0,0.0,0
51.519523,5.858086,5.90,7.50,0.00,0.23,5.90,5.90,4.10,0.36,4702,2020-09-29 13:18:19.827,2020-09-29 15:18:19.827,19,0,0,12.282,51.519521,5.858086,0.00,0.00,0.00,-2.50,2.20,158.10,0,1,0,97,100,-7200,3665,12282,2971.50,7,GPS,1,0,0,0,0,0,0,1601385499826,4229,4225,4224,0,0,0,13,,,,,,,0,0,0,25.00,22.00,1581.00,0.00,0.00,1581.00,6,59.00,0.00,2.26,0.00,0.00,0.00,0,,,100,100,0,1,0,0,0,0,0,,,,,0.0,0.0,0
51.519523,5.858085,5.90,7.40,0.00,0.23,5.90,5.90,4.10,0.36,4816,2020-09-29 13:18:19.940,2020-09-29 15:18:19.940,19,0,0,12.282,51.519521,5.858086,0.00,0.00,0.00,-2.70,2.00,158.10,0,1,0,97,100,-7200,3665,12282,2971.50,7,GPS,1,0,0,0,0,0,0,1601385499940,4229,4225,4224,0,0,0,13,,,,,,,0,0,0,27.00,20.00,1581.00,0.00,0.00,1581.00,6,59.00,0.00,2.27,0.00,0.00,0.00,0,,,100,100,0,1,0,0,0,0,0,,,,,0.0,0.0,0
51.519523,5.858085,5.90,7.40,0.00,0.23,5.90,5.90,4.10,0.36,4901,2020-09-29 13:18:20.025,2020-09-29 15:18:20.025,19,0,0,12.282,51.519521,5.858086,0.00,0.00,0.00,-2.80,2.00,158.00,0,1,0,97,100,-7200,3665,12282,2971.50,7,GPS,1,0,0,0,0,0,0,1601385500025,4229,4225,4224,0,0,0,13,,,,,,,0,0,0,28.00,20.00,1580.00,0.00,0.00,1581.00,6,59.00,0.00,2.27,0.00,0.00,0.00,0,,,100,100,0,1,0,0,0,0,0,,,,,0.0,0.0,0
51.519523,5.858085,5.90,7.40,0.00,0.23,5.90,5.90,4.10,0.36,5032,2020-09-29 13:18:20.156,2020-09-29 15:18:20.156,19,0,0,12.282,51.519521,5.858086,0.00,0.00,0.00,-3.00,1.90,158.00,0,1,0,97,100,-7200,3665,12282,2971.50,7,GPS,1,0,0,0,0,0,0,1601385500156,4229,4225,4224,0,0,0,13,,,,,,,0,0,0,30.00,19.00,1580.00,0.00,0.00,1581.00,6,59.00,0.00,2.29,0.00,0.00,0.00,0,,,100,100,0,1,0,0,0,0,0,,,,,0.0,0.0,0
51.519523,5.858085,5.90,7.40,0.00,0.23,5.90,5.90,4.10,0.36,5098,2020-09-29 13:18:20.222,2020-09-29 15:18:20.222,19,0,0,12.282,51.519521,5.858086,0.00,0.00,0.00,-3.00,1.90,158.00,0,1,0,97,100,-7200,3665,12282,2971.50,7,GPS,1,0,0,0,0,0,0,1601385500222,4229,4225,4224,0,0,0,13,,,,,,,0,0,0,30.00,19.00,1580.00,0.00,0.00,1581.00,6,59.00,0.00,2.25,0.00,0.00,0.00,0,,,100,100,0,1,0,0,0,0,0,,,,,0.0,0.0,0
51.519523,5.858085,5.80,7.40,0.00,0.22,5.90,5.90,4.10,0.36,5198,2020-09-29 13:18:20.323,2020-09-29 15:18:20.323,19,0,0,12.282,51.519521,5.858086,0.00,0.00,0.00,-3.00,1.80,158.00,0,1,0,97,100,-7200,3665,12282,2971.50,7,GPS,1,0,0,0,0,0,0,1601385500322,4229,4225,4224,0,0,0,13,,,,,,,0,0,0,30.00,18.00,1580.00,0.00,0.00,1581.00,6,58.00,0.00,2.23,0.00,0.00,0.00,0,,,100,100,0,1,0,0,0,0,0,,,,,0.0,0.0,0
51.519523,5.858085,5.80,7.40,0.00,0.22,5.90,5.90,4.10,0.36,5300,2020-09-29 13:18:20.424,2020-09-29 15:18:20.424,19,0,0,12.282,51.519521,5.858086,0.00,0.00,0.00,-3.00,1.90,158.00,0,1,0,97,100,-7200,3665,12282,2971.50,7,GPS,1,0,0,0,0,0,0,1601385500424,4229,4225,4224,0,0,0,13,,,,,,,0,0,0,30.00,19.00,1580.00,0.00,0.00,1581.00,6,58.00,0.00,2.20,0.00,0.00,0.00,0,,,100,100,0,1,0,0,0,0,0,,,,,0.0,0.0,0
51.519523,5.858085,5.80,7.40,0.00,0.22,5.90,5.90,4.10,0.36,5401,2020-09-29 13:18:20.526,2020-09-29 15:18:20.526,19,0,0,12.282,51.519521,5.858086,0.00,0.00,0.00,-2.90,1.80,158.00,0,1,0,97,100,-7200,3665,12282,2971.50,7,GPS,1,0,0,0,0,0,0,1601385500525,4229,4225,4224,0,0,0,13,,,,,,,0,0,0,29.00,18.00,1580.00,0.00,0.00,1581.00,6,58.00,0.00,2.18,0.00,0.00,0.00,0,,,100,100,0,1,0,0,0,0,0,,,,,0.0,0.0,0
51.519523,5.858085,5.80,7.40,0.00,0.22,5.90,5.90,4.10,0.36,5495,2020-09-29 13:18:20.620,2020-09-29 15:18:20.620,19,0,0,12.282,51.519521,5.858086,0.00,0.00,0.00,-3.10,2.10,158.00,0,1,0,97,100,-7200,3665,12282,2971.50,7,GPS,1,0,0,0,0,0,0,1601385500619,4229,4225,4224,0,0,0,13,,,,,,,0,0,0,31.00,21.00,1580.00,0.00,0.00,1581.00,6,58.00,0.00,2.16,0.00,0.00,0.00,0,,,100,100,0,1,0,0,0,0,0,,,,,0.0,0.0,0
51.519523,5.858085,5.80,7.40,0.00,0.22,5.90,5.90,4.10,0.36,5601,2020-09-29 13:18:20.725,2020-09-29 15:18:20.725,19,0,0,12.239,51.519521,5.858086,0.00,0.00,0.00,-2.90,2.30,158.10,0,1,0,97,100,-6902,3665,12239,2971.50,7,GPS,1,0,0,0,0,0,0,1601385500725,4229,4225,4224,0,0,0,13,,,,,,,0,0,0,29.00,23.00,1581.00,0.00,0.00,1581.00,6,58.00,0.00,2.15,0.00,0.00,0.00,0,,,100,100,0,1,0,0,0,0,0,,,,,0.0,0.0,0
51.519523,5.858085,5.80,7.40,0.00,0.21,5.90,5.90,4.10,0.36,5734,2020-09-29 13:18:20.858,2020-09-29 15:18:20.858,19,0,0,12.239,51.519521,5.858086,0.00,0.00,0.00,-2.90,2.50,158.10,0,1,0,97,100,-6902,3665,12239,2971.50,7,GPS,1,0,0,0,0,0,0,1601385500858,4229,4225,4224,0,0,0,13,,,,,,,0,0,0,29.00,25.00,1581.00,0.00,0.00,1581.00,6,58.00,0.00,2.11,0.00,0.00,0.00,0,,,100,100,0,1,0,0,0,0,0,,,,,0.0,0.0,0
51.519523,5.858085,5.80,7.40,0.00,0.21,5.90,5.90,4.10,0.36,5811,2020-09-29 13:18:20.935,2020-09-29 15:18:20.935,19,0,0,12.239,51.519521,5.858086,0.00,0.00,0.00,-3.00,2.40,158.00,0,1,0,97,100,-6902,3665,12239,2971.50,7,GPS,1,0,0,0,0,0,0,1601385500935,4229,4225,4224,0,0,0,13,,,,,,,0,0,0,30.00,24.00,1580.00,0.00,0.00,1581.00,6,58.00,0.00,2.09,0.00,0.00,0.00,0,,,100,100,0,1,0,0,0,0,0,,,,,0.0,0.0,0
51.519523,5.858085,5.80,7.40,0.00,0.20,5.90,5.90,4.10,0.36,5904,2020-09-29 13:18:21.029,2020-09-29 15:18:21.029,19,0,0,12.239,51.519521,5.858086,0.00,0.00,0.00,-3.20,2.40,158.00,0,1,0,97,100,-6902,3665,12239,2971.50,7,GPS,1,0,0,0,0,0,0,1601385501028,4229,4225,4224,0,0,0,13,,,,,,,0,0,0,32.00,24.00,1580.00,0.00,0.00,1581.00,6,58.00,0.00,2.03,0.00,0.00,0.00,0,,,100,100,0,1,0,0,0,0,0,,,,,0.0,0.0,0
51.519523,5.858085,5.80,7.40,0.00,0.20,5.90,5.90,4.10,0.36,5999,2020-09-29 13:18:21.124,2020-09-29 15:18:21.124,19,0,0,12.239,51.519521,5.858086,0.00,0.00,0.00,-3.10,2.30,158.00,0,1,0,97,100,-6902,3665,12239,2971.50,7,GPS,1,0,0,0,0,0,0,1601385501123,4229,4225,4224,0,0,0,13,,,,,,,0,0,0,31.00,23.00,1580.00,0.00,0.00,1581.00,6,58.00,0.00,1.99,0.00,0.00,0.00,0,,,100,100,0,1,0,0,0,0,0,,,,,0.0,0.0,0
51.519523,5.858085,5.80,7.40,0.00,0.19,5.90,5.90,4.10,0.36,6104,2020-09-29 13:18:21.229,2020-09-29 15:18:21.229,19,0,0,12.239,51.519521,5.858086,0.00,0.00,0.00,-3.10,2.40,157.90,0,1,0,97,100,-6902,3665,12239,2971.50,7,GPS,1,0,0,0,0,0,0,1601385501228,4229,4225,4224,0,0,0,13,,,,,,,0,0,0,31.00,24.00,1579.00,0.00,0.00,1581.00,6,58.00,0.00,1.95,0.00,0.00,0.00,0,,,100,100,0,1,0,0,0,0,0,,,,,0.0,0.0,0
51.519523,5.858085,5.80,7.40,0.00,0.19,5.90,5.90,4.10,0.36,6203,2020-09-29 13:18:21.327,2020-09-29 15:18:21.327,19,0,0,12.239,51.519521,5.858086,0.00,0.00,0.00,-3.00,2.90,157.90,0,1,0,97,100,-6902,3665,12239,2971.50,7,GPS,1,0,0,0,0,0,0,1601385501327,4229,4225,4224,0,0,0,13,,,,,,,0,0,0,30.00,29.00,1579.00,0.00,0.00,1581.00,6,58.00,0.00,1.92,0.00,0.00,0.00,0,,,100,100,0,1,0,0,0,0,0,,,,,0.0,0.0,0
51.519523,5.858085,5.80,7.30,0.00,0.19,5.90,5.90,4.10,0.36,6303,2020-09-29 13:18:21.427,2020-09-29 15:18:21.428,19,0,0,12.239,51.519521,5.858086,0.00,0.00,0.00,-3.00,3.00,157.90,0,1,0,97,100,-6902,3665,12239,2971.50,7,GPS,1,0,0,0,0,0,0,1601385501427,4229,4225,4224,0,0,0,13,,,,,,,0,0,0,30.00,30.00,1579.00,0.00,0.00,1581.00,6,58.00,0.00,1.87,0.00,0.00,0.00,0,,,100,100,0,1,0,0,0,0,0,,,,,0.0,0.0,0
51.519523,5.858085,5.80,7.30,0.00,0.18,5.90,5.90,4.10,0.36,6398,2020-09-29 13:18:21.522,2020-09-29 15:18:21.522,19,0,0,12.239,51.519521,5.858086,0.00,0.00,0.00,-3.10,3.10,157.90,0,1,0,97,100,-6902,3665,12239,2971.50,7,GPS,1,0,0,0,0,0,0,1601385501522,4229,4225,4224,0,0,0,13,,,,,,,0,0,0,31.00,31.00,1579.00,0.00,0.00,1581.00,6,58.00,0.00,1.84,0.00,0.00,0.00,0,,,100,100,0,1,0,0,0,0,0,,,,,0.0,0.0,0
51.519522,5.858085,5.80,7.30,0.00,0.18,5.90,5.90,4.10,0.36,6497,2020-09-29 13:18:21.622,2020-09-29 15:18:21.622,19,0,0,12.239,51.519521,5.858086,0.00,0.00,0.00,-3.20,3.20,157.90,0,1,0,97,100,-6902,3665,12239,2971.50,7,GPS,1,0,0,0,0,0,0,1601385501621,4229,4225,4224,0,0,0,13,,,,,,,0,0,0,32.00,32.00,1579.00,0.00,0.00,1581.00,6,58.00,0.00,1.78,0.00,0.00,0.00,0,,,100,100,0,1,0,0,0,0,0,,,,,0.0,0.0,0
51.519522,5.858085,5.80,7.30,0.00,0.17,5.90,5.90,4.10,0.36,6604,2020-09-29 13:18:21.728,2020-09-29 15:18:21.728,19,0,0,12.239,51.519521,5.858086,0.00,0.00,0.00,-3.20,3.30,157.90,0,1,0,97,100,-6902,3665,12239,2971.50,7,GPS,1,0,0,0,0,0,0,1601385501728,4229,4225,4224,0,0,0,13,,,,,,,0,0,0,32.00,33.00,1579.00,0.00,0.00,1581.00,6,58.00,0.00,1.74,0.00,0.00,0.00,0,,,100,100,0,1,0,0,0,0,0,,,,,0.0,0.0,0
51.519522,5.858085,5.80,7.30,0.00,0.17,5.90,5.90,4.10,0.36,6704,2020-09-29 13:18:21.828,2020-09-29 15:18:21.828,19,0,0,12.239,51.519521,5.858086,0.00,0.00,0.00,-3.20,3.40,157.90,0,1,0,97,100,-6902,3665,12239,2971.50,7,GPS,1,0,0,0,0,0,0,1601385501828,4229,4225,4224,0,0,0,13,,,,,,,0,0,0,32.00,34.00,1579.00,0.00,0.00,1581.00,6,58.00,0.00,1.70,0.00,0.00,0.00,0,,,100,100,0,1,0,0,0,0,0,,,,,0.0,0.0,0
51.519522,5.858085,5.80,7.30,0.00,0.17,5.90,5.90,4.10,0.36,6837,2020-09-29 13:18:21.961,2020-09-29 15:18:21.961,19,0,0,12.239,51.519521,5.858086,0.00,0.00,0.00,-3.30,3.30,157.90,0,1,0,97,100,-6902,3665,12239,2971.50,7,GPS,1,0,0,0,0,0,0,1601385501961,4229,4225,4224,0,0,0,13,,,,,,,0,0,0,33.00,33.00,1579.00,0.00,0.00,1581.00,6,58.00,0.00,1.68,0.00,0.00,0.00,0,,,100,100,0,1,0,0,0,0,0,,,,,0.0,0.0,0
51.519522,5.858085,5.80,7.30,0.00,0.17,5.90,5.90,4.10,0.36,6894,2020-09-29 13:18:22.019,2020-09-29 15:18:22.019,19,0,0,12.239,51.519521,5.858086,0.00,0.00,0.00,-3.50,3.10,157.90,0,1,0,97,100,-6902,3665,12239,2971.50,7,GPS,1,0,0,0,0,0,0,1601385502018,4229,4225,4224,0,0,0,13,,,,,,,0,0,0,35.00,31.00,1579.00,0.00,0.00,1581.00,6,58.00,0.00,1.67,0.00,0.00,0.00,0,,,100,100,0,1,0,0,0,0,0,,,,,0.0,0.0,0
51.519522,5.858085,5.80,7.30,0.00,0.17,5.90,5.90,4.10,0.36,7010,2020-09-29 13:18:22.134,2020-09-29 15:18:22.134,19,0,0,12.239,51.519521,5.858086,0.00,0.00,0.00,-3.60,3.10,157.90,0,1,0,97,100,-6902,3665,12239,2971.50,7,GPS,1,0,0,0,0,0,0,1601385502134,4229,4225,4224,0,0,0,13,,,,,,,0,0,0,36.00,31.00,1579.00,0.00,0.00,1581.00,6,58.00,0.00,1.66,0.00,0.00,0.00,0,,,100,100,0,1,0,0,0,0,0,,,,,0.0,0.0,0
51.519522,5.858085,5.80,7.30,0.00,0.16,5.90,5.90,4.10,0.36,7097,2020-09-29 13:18:22.221,2020-09-29 15:18:22.221,19,0,0,12.239,51.519521,5.858086,0.00,0.00,0.00,-3.40,3.10,157.90,0,1,0,97,100,-6902,3665,12239,2971.50,7,GPS,1,0,0,0,0,0,0,1601385502221,4229,4225,4224,0,0,0,13,,,,,,,0,0,0,34.00,31.00,1579.00,0.00,0.00,1581.00,6,58.00,0.00,1.62,0.00,0.00,0.00,0,,,100,100,0,1,0,0,0,0,0,,,,,0.0,0.0,0
51.519522,5.858085,5.80,7.30,0.00,0.16,5.90,5.90,4.10,0.36,7196,2020-09-29 13:18:22.320,2020-09-29 15:18:22.321,19,0,0,12.239,51.519521,5.858086,0.00,0.00,0.00,-3.30,3.20,157.90,0,1,0,97,100,-6902,3665,12239,2971.50,7,GPS,1,0,0,0,0,0,0,1601385502320,4229,4225,4224,0,0,0,13,,,,,,,0,0,0,33.00,32.00,1579.00,0.00,0.00,1581.00,6,58.00,0.00,1.59,0.00,0.00,0.00,0,,,100,100,0,1,0,0,0,0,0,,,,,0.0,0.0,0
51.519522,5.858085,5.80,7.30,0.00,0.16,5.90,5.90,4.10,0.36,7295,2020-09-29 13:18:22.420,2020-09-29 15:18:22.420,19,0,0,12.239,51.519521,5.858086,0.00,0.00,0.00,-3.40,3.30,157.90,0,1,0,97,100,-6902,3665,12239,2971.50,7,GPS,1,0,0,0,0,0,0,1601385502419,4229,4225,4224,0,0,0,13,,,,,,,0,0,0,34.00,33.00,1579.00,0.00,0.00,1581.00,6,58.00,0.00,1.56,0.00,0.00,0.00,0,,,100,100,0,1,0,0,0,0,0,,,,,0.0,0.0,0
51.519522,5.858085,5.90,7.30,0.00,0.15,5.90,5.90,4.10,0.36,7400,2020-09-29 13:18:22.524,2020-09-29 15:18:22.524,19,0,0,12.239,51.519521,5.858086,0.00,0.00,0.00,-3.50,3.10,157.80,0,1,0,97,100,-6902,3665,12239,2971.50,7,GPS,1,0,0,0,0,0,0,1601385502524,4229,4225,4224,0,0,0,13,,,,,,,0,0,0,35.00,31.00,1578.00,0.00,0.00,1581.00,6,59.00,0.00,1.55,0.00,0.00,0.00,0,,,100,100,0,1,0,0,0,0,0,,,,,0.0,0.0,0
51.519522,5.858085,5.90,7.30,0.00,0.15,5.90,5.90,4.10,0.36,7499,2020-09-29 13:18:22.624,2020-09-29 15:18:22.624,19,0,0,12.239,51.519521,5.858086,0.00,0.00,0.00,-3.80,3.20,157.80,0,1,0,97,100,-6902,3665,12239,2971.50,7,GPS,1,0,0,0,0,0,0,1601385502623,4096,4081,4079,0,0,0,13,,,,,,,0,0,0,38.00,32.00,1578.00,0.00,0.00,1581.00,6,59.00,0.00,1.54,0.00,0.00,0.00,0,,,100,100,0,1,0,0,0,0,0,,,,,0.0,0.0,0
51.519522,5.858085,5.90,7.30,0.00,0.15,5.90,5.90,4.10,0.36,7597,2020-09-29 13:18:22.722,2020-09-29 15:18:22.722,19,0,0,12.196,51.519521,5.858086,0.00,0.00,0.00,-3.70,3.40,157.80,0,1,0,97,100,-7024,3663,12196,2971.50,7,GPS,1,0,0,0,0,0,0,1601385502721,4096,4081,4079,0,0,0,13,,,,,,,0,0,0,37.00,34.00,1578.00,0.00,0.00,1581.00,6,59.00,0.00,1.53,0.00,0.00,0.00,0,,,100,100,0,1,0,0,0,0,0,,,,,0.0,0.0,0
51.519522,5.858085,5.90,7.30,0.00,0.15,5.90,5.90,4.10,0.36,7693,2020-09-29 13:18:22.818,2020-09-29 15:18:22.818,19,0,0,12.196,51.519521,5.858086,0.00,0.00,0.00,-3.40,3.60,157.80,0,1,0,97,100,-7024,3663,12196,2971.50,7,GPS,1,0,0,0,0,0,0,1601385502817,4096,4081,4079,0,0,0,13,,,,,,,0,0,0,34.00,36.00,1578.00,0.00,0.00,1581.00,6,59.00,0.00,1.52,0.00,0.00,0.00,0,,,100,100,0,1,0,0,0,0,0,,,,,0.0,0.0,0
51.519522,5.858085,5.90,7.20,0.00,0.15,5.90,5.90,4.10,0.36,7789,2020-09-29 13:18:22.913,2020-09-29 15:18:22.913,19,0,0,12.196,51.519521,5.858086,0.00,0.00,0.00,-3.10,3.60,157.80,0,1,0,97,100,-7024,3663,12196,2971.50,7,GPS,1,0,0,0,0,0,0,1601385502913,4096,4081,4079,0,0,0,13,,,,,,,0,0,0,31.00,36.00,1578.00,0.00,0.00,1581.00,6,59.00,0.00,1.50,0.00,0.00,0.00,0,,,100,100,0,1,0,0,0,0,0,,,,,0.0,0.0,0
51.519522,5.858085,5.90,7.20,0.00,0.15,5.90,5.90,4.10,0.36,7895,2020-09-29 13:18:23.020,2020-09-29 15:18:23.020,19,0,0,12.196,51.519521,5.858086,0.00,0.00,0.00,-3.10,3.50,157.80,0,1,0,97,100,-7024,3663,12196,2971.50,7,GPS,1,0,0,0,0,0,0,1601385503019,4096,4081,4079,0,0,0,13,,,,,,,0,0,0,31.00,35.00,1578.00,0.00,0.00,1581.00,6,59.00,0.00,1.49,0.00,0.00,0.00,0,,,100,100,0,1,0,0,0,0,0,,,,,0.0,0.0,0
51.519522,5.858085,5.90,7.20,0.00,0.15,5.90,5.90,4.10,0.36,8001,2020-09-29 13:18:23.125,2020-09-29 15:18:23.125,19,0,0,12.196,51.519521,5.858086,0.00,0.00,0.00,-3.30,3.40,157.80,0,1,0,97,100,-7024,3663,12196,2971.50,7,GPS,1,0,0,0,0,0,0,1601385503125,4096,4081,4079,0,0,0,13,,,,,,,0,0,0,33.00,34.00,1578.00,0.00,0.00,1581.00,6,59.00,0.00,1.48,0.00,0.00,0.00,0,,,100,100,0,1,0,0,0,0,0,,,,,0.0,0.0,0
51.519522,5.858085,5.90,7.20,0.00,0.14,5.90,5.90,4.10,0.36,8093,2020-09-29 13:18:23.218,2020-09-29 15:18:23.218,19,0,0,12.196,51.519521,5.858086,0.00,0.00,0.00,-3.40,3.40,157.80,0,1,0,97,100,-7024,3663,12196,2971.50,7,GPS,1,0,0,0,0,0,0,1601385503217,4096,4081,4079,0,0,0,13,,,,,,,0,0,0,34.00,34.00,1578.00,0.00,0.00,1581.00,6,59.00,0.00,1.45,0.00,0.00,0.00,0,,,100,100,0,1,0,0,0,0,0,,,,,0.0,0.0,0
51.519522,5.858085,5.90,7.20,0.00,0.14,5.90,5.90,4.10,0.36,8194,2020-09-29 13:18:23.319,2020-09-29 15:18:23.319,19,0,0,12.196,51.519521,5.858086,0.00,0.00,0.00,-3.20,3.50,157.80,0,1,0,97,100,-7024,3663,12196,2971.50,7,GPS,1,0,0,0,0,0,0,1601385503318,4096,4081,4079,0,0,0,13,,,,,,,0,0,0,32.00,35.00,1578.00,0.00,0.00,1581.00,6,59.00,0.00,1.42,0.00,0.00,0.00,0,,,100,100,0,1,0,0,0,0,0,,,,,0.0,0.0,0
51.519522,5.858085,5.90,7.20,0.00,0.14,5.90,5.90,4.10,0.36,8302,2020-09-29 13:18:23.427,2020-09-29 15:18:23.427,19,0,0,12.196,51.519521,5.858086,0.00,0.00,0.00,-3.00,3.50,157.90,0,1,0,97,100,-7024,3663,12196,2971.50,7,GPS,1,0,0,0,0,0,0,1601385503426,4096,4081,4079,0,0,0,13,,,,,,,0,0,0,30.00,35.00,1579.00,0.00,0.00,1581.00,6,59.00,0.00,1.39,0.00,0.00,0.00,0,,,100,100,0,1,0,0,0,0,0,,,,,0.0,0.0,0
51.519522,5.858085,5.90,7.20,0.00,0.14,5.90,5.90,4.10,0.36,8390,2020-09-29 13:18:23.515,2020-09-29 15:18:23.515,19,0,0,12.196,51.519521,5.858086,0.00,0.00,0.00,-2.80,3.50,157.90,0,1,0,97,100,-7024,3663,12196,2971.50,7,GPS,1,0,0,0,0,0,0,1601385503514,4096,4081,4079,0,0,0,13,,,,,,,0,0,0,28.00,35.00,1579.00,0.00,0.00,1581.00,6,59.00,0.00,1.36,0.00,0.00,0.00,0,,,100,100,0,1,0,0,0,0,0,,,,,0.0,0.0,0
51.519522,5.858085,5.90,7.20,0.00,0.13,5.90,5.90,4.10,0.36,8491,2020-09-29 13:18:23.615,2020-09-29 15:18:23.616,19,0,0,12.196,51.519521,5.858086,0.00,0.00,0.00,-2.70,3.50,157.90,0,1,0,97,100,-7024,3663,12196,2971.50,7,GPS,1,0,0,0,0,0,0,1601385503615,4096,4081,4079,0,0,0,13,,,,,,,0,0,0,27.00,35.00,1579.00,0.00,0.00,1581.00,6,59.00,0.00,1.32,0.00,0.00,0.00,0,,,100,100,0,1,0,0,0,0,0,,,,,0.0,0.0,0
51.519522,5.858085,5.90,7.20,0.00,0.13,5.90,5.90,4.10,0.36,8595,2020-09-29 13:18:23.719,2020-09-29 15:18:23.719,19,0,0,12.196,51.519521,5.858086,0.00,0.00,0.00,-2.60,3.50,157.90,0,1,0,97,100,-7024,3663,12196,2971.50,7,GPS,1,0,0,0,0,0,0,1601385503719,4096,4081,4079,0,0,0,13,,,,,,,0,0,0,26.00,35.00,1579.00,0.00,0.00,1581.00,6,59.00,0.00,1.29,0.00,0.00,0.00,0,,,100,100,0,1,0,0,0,0,0,,,,,0.0,0.0,0
51.519522,5.858085,5.90,7.20,0.00,0.12,5.90,5.90,4.10,0.36,8697,2020-09-29 13:18:23.821,2020-09-29 15:18:23.821,19,0,0,12.196,51.519521,5.858086,0.00,0.00,0.00,-2.70,3.40,157.90,0,1,0,97,100,-7024,3663,12196,2971.50,7,GPS,1,0,0,0,0,0,0,1601385503821,4096,4081,4079,0,0,0,13,,,,,,,0,0,0,27.00,34.00,1579.00,0.00,0.00,1581.00,6,59.00,0.00,1.25,0.00,0.00,0.00,0,,,100,100,0,1,0,0,0,0,0,,,,,0.0,0.0,0
51.519522,5.858085,5.90,7.20,0.00,0.12,5.90,5.90,4.10,0.36,8803,2020-09-29 13:18:23.927,2020-09-29 15:18:23.928,19,0,0,12.196,51.519521,5.858086,0.00,0.00,0.00,-2.80,3.20,158.00,0,1,0,97,100,-7024,3663,12196,2971.50,7,GPS,1,0,0,0,0,0,0,1601385503927,4096,4081,4079,0,0,0,13,,,,,,,0,0,0,28.00,32.00,1580.00,0.00,0.00,1581.00,6,59.00,0.00,1.22,0.00,0.00,0.00,0,,,100,100,0,1,0,0,0,0,0,,,,,0.0,0.0,0
51.519522,5.858085,5.90,7.20,0.00,0.12,5.90,5.90,4.10,0.36,8900,2020-09-29 13:18:24.024,2020-09-29 15:18:24.024,19,0,0,12.196,51.519521,5.858086,0.00,0.00,0.00,-2.90,3.20,158.00,0,1,0,97,100,-7024,3663,12196,2971.50,7,GPS,1,0,0,0,0,0,0,1601385504024,4096,4081,4079,0,0,0,13,,,,,,,0,0,0,29.00,32.00,1580.00,0.00,0.00,1581.00,6,59.00,0.00,1.22,0.00,0.00,0.00,0,,,100,100,0,1,0,0,0,0,0,,,,,0.0,0.0,0
51.519522,5.858085,5.90,7.20,0.00,0.12,5.90,5.90,4.10,0.36,8992,2020-09-29 13:18:24.116,2020-09-29 15:18:24.117,19,0,0,12.196,51.519521,5.858086,0.00,0.00,0.00,-2.90,3.40,158.00,0,1,0,97,100,-7024,3663,12196,2971.50,7,GPS,1,0,0,0,0,0,0,1601385504116,4096,4081,4079,0,0,0,13,,,,,,,0,0,0,29.00,34.00,1580.00,0.00,0.00,1581.00,6,59.00,0.00,1.22,0.00,0.00,0.00,0,,,100,100,0,1,0,0,0,0,0,,,,,0.0,0.0,0
51.519522,5.858085,5.90,7.20,0.00,0.12,5.90,5.90,4.10,0.36,9095,2020-09-29 13:18:24.220,2020-09-29 15:18:24.220,19,0,0,12.196,51.519521,5.858086,0.00,0.00,0.00,-2.80,3.50,158.00,0,1,0,97,100,-7024,3663,12196,2971.50,7,GPS,1,0,0,0,0,0,0,1601385504219,4096,4081,4079,0,0,0,13,,,,,,,0,0,0,28.00,35.00,1580.00,0.00,0.00,1581.00,6,59.00,0.00,1.19,0.00,0.00,0.00,0,,,100,100,0,1,0,0,0,0,0,,,,,0.0,0.0,0
51.519522,5.858085,5.90,7.10,0.00,0.12,5.90,5.90,4.10,0.36,9193,2020-09-29 13:18:24.318,2020-09-29 15:18:24.318,19,0,0,12.196,51.519521,5.858086,0.00,0.00,0.00,-2.80,3.50,158.00,0,1,0,97,100,-7024,3663,12196,2971.50,7,GPS,1,0,0,0,0,0,0,1601385504317,4096,4081,4079,0,0,0,13,,,,,,,0,0,0,28.00,35.00,1580.00,0.00,0.00,1581.00,6,59.00,0.00,1.17,0.00,0.00,0.00,0,,,100,100,0,1,0,0,0,0,0,,,,,0.0,0.0,0
51.519522,5.858085,5.90,7.10,0.00,0.12,5.90,5.90,4.10,0.36,9291,2020-09-29 13:18:24.415,2020-09-29 15:18:24.415,19,0,0,12.196,51.519521,5.858086,0.00,0.00,0.00,-2.60,3.30,158.00,0,1,0,97,100,-7024,3663,12196,2971.50,7,GPS,1,0,0,0,0,0,0,1601385504415,4096,4081,4079,0,0,0,13,,,,,,,0,0,0,26.00,33.00,1580.00,0.00,0.00,1581.00,6,59.00,0.00,1.17,0.00,0.00,0.00,0,,,100,100,0,1,0,0,0,0,0,,,,,0.0,0.0,0
51.519522,5.858085,5.90,7.10,0.00,0.12,5.90,5.90,4.10,0.36,9392,2020-09-29 13:18:24.517,2020-09-29 15:18:24.517,19,0,0,12.196,51.519521,5.858086,0.00,0.00,0.00,-2.70,3.40,157.90,0,1,0,97,100,-7024,3663,12196,2971.50,7,GPS,1,0,0,0,0,0,0,1601385504516,4096,4081,4079,0,0,0,13,,,,,,,0,0,0,27.00,34.00,1579.00,0.00,0.00,1581.00,6,59.00,0.00,1.17,0.00,0.00,0.00,0,,,100,100,0,1,0,0,0,0,0,,,,,0.0,0.0,0
51.519522,5.858085,5.90,7.10,0.00,0.12,5.90,5.90,4.10,0.36,9492,2020-09-29 13:18:24.616,2020-09-29 15:18:24.616,19,0,0,12.196,51.519521,5.858086,0.00,0.00,0.00,-2.70,3.50,157.90,0,1,0,97,100,-7024,3663,12196,2971.50,7,GPS,1,0,0,0,0,0,0,1601385504616,4096,4081,4079,0,0,0,13,,,,,,,0,0,0,27.00,35.00,1579.00,0.00,0.00,1581.00,6,59.00,0.00,1.18,0.00,0.00,0.00,0,,,100,100,0,1,0,0,0,0,0,,,,,0.0,0.0,0
51.519522,5.858085,5.90,7.10,0.00,0.12,5.90,5.90,4.10,0.36,9605,2020-09-29 13:18:24.729,2020-09-29 15:18:24.730,19,0,0,12.218,51.519521,5.858086,0.00,0.00,0.00,-2.70,3.60,157.90,0,1,0,97,100,-7224,3657,12218,2971.50,7,GPS,1,0,0,0,0,0,0,1601385504729,4096,4081,4079,0,0,0,13,,,,,,,0,0,0,27.00,36.00,1579.00,0.00,0.00,1581.00,6,59.00,0.00,1.20,0.00,0.00,0.00,0,,,100,100,0,1,0,0,0,0,0,,,,,0.0,0.0,0
51.519522,5.858085,5.90,7.10,0.00,0.12,5.90,5.90,4.10,0.36,9745,2020-09-29 13:18:24.870,2020-09-29 15:18:24.870,19,0,0,12.218,51.519521,5.858086,0.00,0.00,0.00,-2.70,3.60,157.90,0,1,0,97,100,-7224,3657,12218,2971.50,7,GPS,1,0,0,0,0,0,0,1601385504869,4096,4081,4079,0,0,0,13,,,,,,,0,0,0,27.00,36.00,1579.00,0.00,0.00,1581.00,6,59.00,0.00,1.19,0.00,0.00,0.00,0,,,100,100,0,1,0,0,0,0,0,,,,,0.0,0.0,0
51.519522,5.858085,5.90,7.10,0.00,0.12,5.90,5.90,4.10,0.36,9801,2020-09-29 13:18:24.925,2020-09-29 15:18:24.925,19,0,0,12.218,51.519521,5.858086,0.00,0.00,0.00,-2.70,3.60,158.00,0,1,0,97,100,-7224,3657,12218,2971.50,7,GPS,1,0,0,0,0,0,0,1601385504925,4096,4081,4079,0,0,0,13,,,,,,,0,0,0,27.00,36.00,1580.00,0.00,0.00,1581.00,6,59.00,0.00,1.20,0.00,0.00,0.00,0,,,100,100,0,1,0,0,0,0,0,,,,,0.0,0.0,0
51.519522,5.858085,5.90,7.10,0.00,0.12,5.90,5.90,4.10,0.36,9888,2020-09-29 13:18:25.013,2020-09-29 15:18:25.013,19,0,0,12.218,51.519521,5.858086,0.00,0.00,0.00,-2.60,3.70,157.90,0,1,0,97,100,-7224,3657,12218,2971.50,7,GPS,1,0,0,0,0,0,0,1601385505012,4096,4081,4079,0,0,0,13,,,,,,,0,0,0,26.00,37.00,1579.00,0.00,0.00,1581.00,6,59.00,0.00,1.20,0.00,0.00,0.00,0,,,100,100,0,1,0,0,0,0,0,,,,,0.0,0.0,0
51.519522,5.858085,5.90,7.10,0.00,0.12,5.90,5.90,4.10,0.36,10008,2020-09-29 13:18:25.132,2020-09-29 15:18:25.132,19,0,0,12.218,51.519521,5.858086,0.00,0.00,0.00,-2.70,3.60,158.00,0,1,0,97,100,-7224,3657,12218,2971.50,7,GPS,1,0,0,0,0,0,0,1601385505132,4096,4081,4079,0,0,0,13,,,,,,,0,0,0,27.00,36.00,1580.00,0.00,0.00,1581.00,6,59.00,0.00,1.22,0.00,0.00,0.00,0,,,100,100,0,1,0,0,0,0,0,,,,,0.0,0.0,0
51.519522,5.858085,5.90,7.10,0.00,0.12,5.90,5.90,4.10,0.36,10093,2020-09-29 13:18:25.218,2020-09-29 15:18:25.218,19,0,0,12.218,51.519521,5.858086,0.00,0.00,0.00,-2.90,3.50,157.90,0,1,0,97,100,-7224,3657,12218,2971.50,7,GPS,1,0,0,0,0,0,0,1601385505217,4096,4081,4079,0,0,0,13,,,,,,,0,0,0,29.00,35.00,1579.00,0.00,0.00,1581.00,6,59.00,0.00,1.21,0.00,0.00,0.00,0,,,100,100,0,1,0,0,0,0,0,,,,,0.0,0.0,0
51.519522,5.858085,5.90,7.10,0.00,0.12,5.90,5.90,4.10,0.36,10208,2020-09-29 13:18:25.332,2020-09-29 15:18:25.332,19,0,0,12.218,51.519521,5.858086,0.00,0.00,0.00,-3.00,3.40,157.90,0,1,0,97,100,-7224,3657,12218,2971.50,7,GPS,1,0,0,0,0,0,0,1601385505332,4096,4081,4079,0,0,0,13,,,,,,,0,0,0,30.00,34.00,1579.00,0.00,0.00,1581.00,6,59.00,0.00,1.20,0.00,0.00,0.00,0,,,100,100,0,1,0,0,0,0,0,,,,,0.0,0.0,0
51.519522,5.858085,5.90,7.10,0.00,0.12,5.90,5.90,4.10,0.36,10306,2020-09-29 13:18:25.430,2020-09-29 15:18:25.431,19,0,0,12.218,51.519521,5.858086,0.00,0.00,0.00,-2.90,3.30,157.90,0,1,0,97,100,-7224,3657,12218,2971.50,7,GPS,1,0,0,0,0,0,0,1601385505430,4096,4081,4079,0,0,0,13,,,,,,,0,0,0,29.00,33.00,1579.00,0.00,0.00,1581.00,6,59.00,0.00,1.21,0.00,0.00,0.00,0,,,100,100,0,1,0,0,0,0,0,,,,,0.0,0.0,0
51.519522,5.858085,5.90,7.10,0.00,0.12,5.90,5.90,4.10,0.36,10390,2020-09-29 13:18:25.515,2020-09-29 15:18:25.515,19,0,0,12.218,51.519521,5.858086,0.00,0.00,0.00,-2.80,3.20,157.90,0,1,0,97,100,-7224,3657,12218,2971.50,7,GPS,1,0,0,0,0,0,0,1601385505514,4096,4081,4079,0,0,0,13,,,,,,,0,0,0,28.00,32.00,1579.00,0.00,0.00,1581.00,6,59.00,0.00,1.22,0.00,0.00,0.00,0,,,100,100,0,1,0,0,0,0,0,,,,,0.0,0.0,0
51.519522,5.858085,5.90,7.10,0.00,0.12,5.90,5.90,4.10,0.36,10495,2020-09-29 13:18:25.620,2020-09-29 15:18:25.620,19,0,0,12.218,51.519521,5.858086,0.00,0.00,0.00,-2.70,3.20,158.00,0,1,0,97,100,-7224,3657,12218,2971.50,7,GPS,1,0,0,0,0,0,0,1601385505619,4096,4081,4079,0,0,0,13,,,,,,,0,0,0,27.00,32.00,1580.00,0.00,0.00,1581.00,6,59.00,0.00,1.24,0.00,0.00,0.00,0,,,100,100,0,1,0,0,0,0,0,,,,,0.0,0.0,0
51.519522,5.858084,5.90,7.10,0.00,0.13,5.90,5.90,4.10,0.36,10599,2020-09-29 13:18:25.723,2020-09-29 15:18:25.723,19,0,0,12.218,51.519521,5.858086,0.00,0.00,0.00,-2.90,3.20,157.90,0,1,0,97,100,-7224,3657,12218,2971.50,7,GPS,1,0,0,0,0,0,0,1601385505723,4096,4081,4079,0,0,0,13,,,,,,,0,0,0,29.00,32.00,1579.00,0.00,0.00,1581.00,6,59.00,0.00,1.26,0.00,0.00,0.00,0,,,100,100,0,1,0,0,0,0,0,,,,,0.0,0.0,0
51.519522,5.858084,5.90,7.10,0.00,0.13,5.90,5.90,4.10,0.36,10696,2020-09-29 13:18:25.821,2020-09-29 15:18:25.821,19,0,0,12.218,51.519521,5.858086,0.00,0.00,0.00,-2.90,3.30,157.90,0,1,0,97,100,-7224,3657,12218,2971.50,7,GPS,1,0,0,0,0,0,0,1601385505820,4096,4081,4079,0,0,0,13,,,,,,,0,0,0,29.00,33.00,1579.00,0.00,0.00,1581.00,6,59.00,0.00,1.25,0.00,0.00,0.00,0,,,100,100,0,1,0,0,0,0,0,,,,,0.0,0.0,0
51.519522,5.858084,5.90,7.10,0.00,0.13,5.90,5.90,4.10,0.36,10792,2020-09-29 13:18:25.916,2020-09-29 15:18:25.916,19,0,0,12.218,51.519521,5.858086,0.00,0.00,0.00,-2.90,3.40,157.90,0,1,0,97,100,-7224,3657,12218,2971.50,7,GPS,1,0,0,0,0,0,0,1601385505916,4096,4081,4079,0,0,0,13,,,,,,,0,0,0,29.00,34.00,1579.00,0.00,0.00,1581.00,6,59.00,0.00,1.26,0.00,0.00,0.00,0,,,100,100,0,1,0,0,0,0,0,,,,,0.0,0.0,0
51.519522,5.858084,5.90,7.00,0.00,0.13,5.90,5.90,4.10,0.36,10904,2020-09-29 13:18:26.029,2020-09-29 15:18:26.029,19,0,0,12.218,51.519521,5.858086,0.00,0.00,0.00,-2.70,3.30,157.90,0,1,0,97,100,-7224,3657,12218,2971.50,7,GPS,1,0,0,0,0,0,0,1601385506028,4096,4081,4079,0,0,0,13,,,,,,,0,0,0,27.00,33.00,1579.00,0.00,0.00,1581.00,6,59.00,0.00,1.26,0.00,0.00,0.00,0,,,100,100,0,1,0,0,0,0,0,,,,,0.0,0.0,0
51.519521,5.858084,5.90,7.00,0.00,0.13,5.90,5.90,4.10,0.36,10992,2020-09-29 13:18:26.117,2020-09-29 15:18:26.117,19,0,0,12.218,51.519521,5.858086,0.00,0.00,0.00,-2.70,3.10,158.00,0,1,0,97,100,-7224,3657,12218,2971.50,7,GPS,1,0,0,0,0,0,0,1601385506116,4096,4081,4079,0,0,0,13,,,,,,,0,0,0,27.00,31.00,1580.00,0.00,0.00,1581.00,6,59.00,0.00,1.28,0.00,0.00,0.00,0,,,100,100,0,1,0,0,0,0,0,,,,,0.0,0.0,0
51.519521,5.858084,5.90,7.00,0.00,0.13,5.90,5.90,4.10,0.36,11091,2020-09-29 13:18:26.216,2020-09-29 15:18:26.216,19,0,0,12.218,51.519521,5.858086,0.00,0.00,0.00,-2.80,3.00,158.00,0,1,0,97,100,-7224,3657,12218,2971.50,7,GPS,1,0,0,0,0,0,0,1601385506215,4096,4081,4079,0,0,0,13,,,,,,,0,0,0,28.00,30.00,1580.00,0.00,0.00,1581.00,6,59.00,0.00,1.31,0.00,0.00,0.00,0,,,100,100,0,1,0,0,0,1,0,,,,,0.0,0.0,0
51.519521,5.858084,5.90,7.00,0.00,0.14,5.90,5.90,4.10,0.36,11210,2020-09-29 13:18:26.335,2020-09-29 15:18:26.335,19,0,0,12.218,51.519521,5.858086,0.00,0.00,0.00,-2.90,2.80,157.90,0,1,0,97,100,-7224,3657,12218,2971.50,7,WP,1,0,0,0,0,0,0,1601385506334,4096,4081,4079,0,0,0,13,,,,,,,0,0,0,29.00,28.00,1579.00,0.00,0.00,1581.00,14,59.00,0.00,1.36,0.00,0.00,0.00,0,,,100,100,0,1,0,0,0,1,0,,,,,0.0,0.0,0
51.519521,5.858084,5.90,7.00,0.00,0.14,5.90,5.90,4.10,0.36,11296,2020-09-29 13:18:26.421,2020-09-29 15:18:26.421,19,0,0,12.218,51.519521,5.858086,0.00,0.00,0.00,-2.50,2.30,158.00,0,1,0,97,100,-7224,3657,12218,2971.50,7,WP,1,0,0,0,0,0,0,1601385506420,4096,4081,4079,0,0,0,13,,,,,,,0,0,0,25.00,23.00,1580.00,0.00,0.00,1581.00,14,59.00,0.00,1.38,0.00,0.00,0.00,0,,,100,100,0,1,0,0,0,1,0,,,,,0.0,0.0,0
51.519521,5.858084,5.90,7.00,0.00,0.14,5.90,5.90,4.10,0.36,11391,2020-09-29 13:18:26.515,2020-09-29 15:18:26.516,19,0,0,12.218,51.519521,5.858086,0.00,0.00,0.00,-2.50,2.40,157.80,0,1,0,97,100,-7224,3657,12218,2971.50,7,WP,1,0,0,0,0,0,0,1601385506515,4096,4081,4079,0,0,0,13,,,,,,,0,0,0,25.00,24.00,1578.00,0.00,0.00,1581.00,14,59.00,0.00,1.41,0.00,0.00,0.00,0,,,100,100,0,1,0,0,0,1,0,,,,,0.0,0.0,0
51.519521,5.858084,5.90,7.00,0.10,0.14,5.90,5.90,4.10,0.36,11491,2020-09-29 13:18:26.615,2020-09-29 15:18:26.615,19,0,0,12.218,51.519521,5.858086,0.00,0.00,-0.10,-2.90,2.30,157.80,0,1,0,97,100,-7224,3657,12218,2971.50,7,WP,1,0,0,0,0,0,0,1601385506615,4096,4081,4079,0,0,0,13,,,,,,,0,0,0,29.00,23.00,1578.00,0.00,0.00,1581.00,14,59.00,1.00,1.45,0.00,0.00,-1.00,0,,,100,100,0,1,0,0,0,1,0,,,,,0.0,0.0,0
51.519521,5.858084,5.90,7.10,0.30,0.15,5.90,5.90,4.10,0.36,11594,2020-09-29 13:18:26.719,2020-09-29 15:18:26.719,19,0,0,12.304,51.519521,5.858086,0.00,0.00,-0.30,-3.10,2.30,157.80,0,1,0,97,100,-7240,3652,12304,2971.50,7,WP,1,0,0,0,0,0,0,1601385506718,4096,4081,4079,0,0,0,13,,,,,,,0,0,0,31.00,23.00,1578.00,0.00,0.00,1581.00,14,59.00,3.00,1.47,0.00,0.00,-3.00,0,,,100,100,0,1,0,0,0,1,0,,,,,0.0,0.0,0
51.519521,5.858084,5.90,7.10,0.50,0.14,5.90,5.90,4.10,0.36,11705,2020-09-29 13:18:26.830,2020-09-29 15:18:26.830,19,0,0,12.304,51.519521,5.858086,0.00,0.00,-0.50,-3.10,2.40,157.80,0,1,0,97,100,-7240,3652,12304,2971.50,7,WP,1,0,0,0,0,0,0,1601385506829,4096,4081,4079,0,0,0,13,,,,,,,0,0,0,31.00,24.00,1578.00,0.00,0.00,1581.00,14,59.00,5.00,1.45,0.00,0.00,-5.00,0,,,100,100,0,1,0,0,0,1,0,,,,,0.0,0.0,0
51.519521,5.858084,6.00,7.20,0.70,0.14,6.00,6.00,4.10,0.36,11801,2020-09-29 13:18:26.926,2020-09-29 15:18:26.926,19,0,0,12.304,51.519521,5.858086,0.00,0.00,-0.70,-2.80,2.80,157.70,0,1,0,97,100,-7240,3652,12304,2971.50,7,WP,1,0,0,0,0,0,0,1601385506925,4096,4081,4079,0,0,0,13,,,,,,,0,0,0,28.00,28.00,1577.00,0.00,0.00,1581.00,14,60.00,7.00,1.41,0.00,0.00,-7.00,0,,,100,100,0,1,0,0,0,1,0,,,,,0.0,0.0,0
51.519521,5.858084,6.10,7.30,1.00,0.13,6.10,6.10,4.10,0.36,11889,2020-09-29 13:18:27.013,2020-09-29 15:18:27.013,19,0,0,12.304,51.519521,5.858086,0.00,0.00,-1.00,-2.40,3.00,157.70,0,1,0,97,100,-7240,3652,12304,2971.50,7,WP,1,0,0,0,0,0,0,1601385507013,4096,4081,4079,0,0,0,13,,,,,,,0,0,0,24.00,30.00,1577.00,0.00,0.00,1581.00,14,61.00,10.00,1.33,0.00,0.00,-10.00,0,,,100,100,0,1,0,0,0,1,0,,,,,0.0,0.0,0
51.519521,5.858084,6.20,7.40,1.30,0.13,6.20,6.20,4.10,0.36,12000,2020-09-29 13:18:27.125,2020-09-29 15:18:27.125,19,0,0,12.304,51.519521,5.858086,0.00,0.00,-1.30,-2.20,3.20,157.70,0,1,0,97,100,-7240,3652,12304,2971.50,7,WP,1,0,0,0,0,0,0,1601385507124,4096,4081,4079,0,0,0,13,,,,,,,0,0,0,22.00,32.00,1577.00,0.00,0.00,1581.00,14,62.00,13.00,1.25,0.00,0.00,-13.00,0,,,100,100,0,1,0,0,0,1,0,,,,,0.0,0.0,0
51.519521,5.858084,6.40,7.50,1.50,0.12,6.40,6.40,4.10,0.36,12096,2020-09-29 13:18:27.220,2020-09-29 15:18:27.220,19,0,0,12.304,51.519521,5.858086,0.00,0.00,-1.50,-2.30,3.30,157.80,0,1,0,97,100,-7240,3652,12304,2971.50,7,WP,1,0,0,0,0,0,0,1601385507220,4096,4081,4079,0,0,0,13,,,,,,,0,0,0,23.00,33.00,1578.00,0.00,0.00,1581.00,14,64.00,15.00,1.23,0.00,0.00,-15.00,0,,,100,100,0,1,0,0,0,1,0,,,,,0.0,0.0,0
51.519521,5.858084,6.60,7.70,1.70,0.12,6.60,6.60,4.10,0.36,12215,2020-09-29 13:18:27.339,2020-09-29 15:18:27.339,19,0,0,12.304,51.519521,5.858086,0.00,0.00,-1.70,-2.50,3.30,157.80,0,1,0,97,100,-7240,3652,12304,2971.50,7,WP,1,0,0,0,0,0,0,1601385507339,4096,4081,4079,0,0,0,13,,,,,,,0,0,0,25.00,33.00,1578.00,0.00,0.00,1581.00,14,66.00,17.00,1.22,0.00,0.00,-17.00,0,,,100,100,0,1,0,0,0,1,0,,,,,0.0,0.0,0
51.519521,5.858084,6.80,7.90,2.00,0.12,6.80,6.80,4.10,0.36,12291,2020-09-29 13:18:27.415,2020-09-29 15:18:27.415,19,0,0,12.304,51.519521,5.858086,0.00,0.00,-2.00,-2.60,3.10,157.80,0,1,0,97,100,-7240,3652,12304,2971.50,7,WP,1,0,0,0,0,0,0,1601385507415,4096,4081,4079,0,0,0,13,,,,,,,0,0,0,26.00,31.00,1578.00,0.00,0.00,1581.00,14,68.00,20.00,1.15,0.00,0.00,-20.00,0,,,100,100,0,1,0,0,0,1,0,,,,,0.0,0.0,0
51.519521,5.858084,7.00,8.10,2.20,0.11,7.00,7.00,4.10,0.36,12393,2020-09-29 13:18:27.518,2020-09-29 15:18:27.518,19,0,0,12.304,51.519521,5.858086,0.00,0.00,-2.20,-2.30,3.00,157.80,0,1,0,97,100,-7240,3652,12304,2971.50,7,WP,1,0,0,0,0,0,0,1601385507517,4096,4081,4079,0,0,0,13,,,,,,,0,0,0,23.00,30.00,1578.00,0.00,0.00,1581.00,14,70.00,22.00,1.09,0.00,0.00,-22.00,0,,,100,100,0,1,0,0,0,1,0,,,,,0.0,0.0,0
51.519521,5.858084,7.20,8.30,2.40,0.10,7.20,7.20,4.10,0.36,12491,2020-09-29 13:18:27.615,2020-09-29 15:18:27.615,19,0,0,12.304,51.519521,5.858086,0.00,0.00,-2.40,-2.00,3.10,157.70,0,1,0,97,100,-7240,3652,12304,2971.50,7,WP,1,0,0,0,0,0,0,1601385507615,4096,4081,4079,0,0,0,13,,,,,,,0,0,0,20.00,31.00,1577.00,0.00,0.00,1581.00,14,72.00,24.00,1.05,0.00,0.00,-24.00,0,,,100,100,0,1,0,0,0,1,0,,,,,0.0,0.0,0
51.519521,5.858084,7.50,8.60,2.60,0.10,7.50,7.50,4.10,0.36,12592,2020-09-29 13:18:27.717,2020-09-29 15:18:27.717,19,0,0,12.304,51.519521,5.858086,0.00,0.00,-2.60,-1.70,3.10,157.80,0,1,0,97,100,-7240,3652,12304,2971.50,7,WP,1,0,0,0,0,0,0,1601385507716,4096,4081,4079,0,0,0,13,,,,,,,0,0,0,17.00,31.00,1578.00,0.00,0.00,1581.00,14,75.00,26.00,1.02,0.00,0.00,-26.00,0,,,100,100,0,1,0,0,0,1,0,,,,,0.0,0.0,0
51.519521,5.858084,7.70,8.90,2.80,0.10,7.70,7.70,4.10,0.36,12696,2020-09-29 13:18:27.821,2020-09-29 15:18:27.821,19,0,0,12.304,51.519521,5.858086,0.00,0.00,-2.80,-1.40,3.00,157.80,0,1,0,97,100,-7240,3652,12304,2971.50,7,WP,1,0,0,0,0,0,0,1601385507820,4096,4081,4079,0,0,0,13,,,,,,,0,0,0,14.00,30.00,1578.00,0.00,0.00,1581.00,14,77.00,28.00,1.03,0.00,0.00,-28.00,0,,,100,100,0,1,0,0,0,1,0,,,,,0.0,0.0,0
51.519521,5.858084,8.00,9.20,3.00,0.11,8.00,8.00,4.10,0.36,12791,2020-09-29 13:18:27.916,2020-09-29 15:18:27.916,19,0,0,12.304,51.519521,5.858086,0.00,0.00,-3.00,-1.30,2.80,157.90,0,1,0,97,100,-7240,3652,12304,2971.50,7,WP,1,0,0,0,0,0,0,1601385507915,4096,4081,4079,0,0,0,13,,,,,,,0,0,0,13.00,28.00,1579.00,0.00,0.00,1581.00,14,80.00,30.00,1.06,0.00,0.00,-30.00,0,,,100,100,0,1,0,0,0,1,0,,,,,0.0,0.0,0
51.519521,5.858084,8.40,9.50,3.10,0.11,8.40,8.40,4.10,0.36,12901,2020-09-29 13:18:28.026,2020-09-29 15:18:28.026,19,0,0,12.304,51.519521,5.858086,0.00,0.00,-3.10,-1.40,3.00,157.90,0,1,0,97,100,-7240,3652,12304,2971.50,7,WP,1,0,0,0,0,0,0,1601385508025,4096,4081,4079,0,0,0,13,,,,,,,0,0,0,14.00,30.00,1579.00,0.00,0.00,1581.00,14,84.00,31.00,1.10,0.00,0.00,-31.00,0,,,100,100,0,1,0,0,0,1,0,,,,,0.0,0.0,0
51.519521,5.858084,8.70,9.80,3.20,0.11,8.70,8.70,4.10,0.36,12990,2020-09-29 13:18:28.115,2020-09-29 15:18:28.115,19,0,0,12.304,51.519521,5.858086,0.00,0.00,-3.20,-1.50,2.90,158.00,0,1,0,97,100,-7240,3652,12304,2971.50,7,WP,1,0,0,0,0,0,0,1601385508114,4096,4081,4079,0,0,0,13,,,,,,,0,0,0,15.00,29.00,1580.00,0.00,0.00,1581.00,14,87.00,32.00,1.14,0.00,0.00,-32.00,0,,,100,100,0,1,0,0,0,1,0,,,,,0.0,0.0,0
51.519521,5.858084,9.00,10.10,3.30,0.12,9.00,9.00,4.10,0.36,13101,2020-09-29 13:18:28.225,2020-09-29 15:18:28.226,19,0,0,12.304,51.519521,5.858086,0.00,0.00,-3.30,-1.40,2.80,158.00,0,1,0,97,100,-7240,3652,12304,2971.50,7,WP,1,0,0,0,0,0,0,1601385508225,4096,4081,4079,0,0,0,13,,,,,,,0,0,0,14.00,28.00,1580.00,0.00,0.00,1581.00,14,90.00,33.00,1.18,0.00,0.00,-33.00,0,,,100,100,0,1,0,0,0,1,0,,,,,0.0,0.0,0
51.519521,5.858084,9.40,10.40,3.30,0.12,9.40,9.40,4.10,0.36,13194,2020-09-29 13:18:28.319,2020-09-29 15:18:28.319,19,0,0,12.304,51.519521,5.858086,0.00,0.00,-3.30,-1.20,2.80,158.00,0,1,0,97,100,-7240,3652,12304,2971.50,7,WP,1,0,0,0,0,0,0,1601385508318,4096,4081,4079,0,0,0,13,,,,,,,0,0,0,12.00,28.00,1580.00,0.00,0.00,1581.00,14,94.00,33.00,1.22,0.00,0.00,-33.00,0,,,100,100,0,1,0,0,0,1,0,,,,,0.0,0.0,0
51.519521,5.858084,9.70,10.70,3.30,0.13,9.70,9.70,4.10,0.36,13300,2020-09-29 13:18:28.424,2020-09-29 15:18:28.424,19,0,0,12.304,51.519521,5.858086,0.00,0.00,-3.30,-1.00,2.80,158.10,0,1,0,97,100,-7240,3652,12304,2971.50,7,WP,1,0,0,0,0,0,0,1601385508424,4096,4081,4079,0,0,0,13,,,,,,,0,0,0,10.00,28.00,1581.00,0.00,0.00,1581.00,14,97.00,33.00,1.26,0.00,0.00,-33.00,0,,,100,100,0,1,0,0,0,1,0,,,,,0.0,0.0,0
51.519521,5.858084,10.00,11.00,3.30,0.13,10.00,10.00,4.10,0.36,13402,2020-09-29 13:18:28.526,2020-09-29 15:18:28.526,19,0,0,12.304,51.519521,5.858086,0.00,0.00,-3.30,-1.10,2.70,158.10,0,1,0,97,100,-7240,3652,12304,2971.50,7,WP,1,0,0,0,0,0,0,1601385508526,4096,4081,4079,0,0,0,13,,,,,,,0,0,0,11.00,27.00,1581.00,0.00,0.00,1581.00,14,100.00,33.00,1.31,0.00,0.00,-33.00,0,,,100,100,0,1,0,0,0,1,0,,,,,0.0,0.0,0
51.519521,5.858084,10.40,11.30,3.20,0.14,10.40,10.40,4.10,0.36,13490,2020-09-29 13:18:28.615,2020-09-29 15:18:28.615,19,0,0,11.917,51.519521,5.858086,0.00,0.00,-3.20,-1.10,2.60,158.00,0,1,0,97,100,-10440,3644,11917,2971.50,7,WP,1,0,0,0,0,0,0,1601385508614,4096,4081,4079,0,0,0,13,,,,,,,0,0,0,11.00,26.00,1580.00,0.00,0.00,1581.00,14,104.00,32.00,1.36,0.00,0.00,-32.00,0,,,100,100,0,1,0,0,0,1,0,,,,,0.0,0.0,0
51.519521,5.858084,10.70,11.60,3.20,0.14,10.70,10.70,4.10,0.36,13601,2020-09-29 13:18:28.726,2020-09-29 15:18:28.726,19,0,0,11.917,51.519521,5.858086,0.00,0.00,-3.20,-1.10,2.40,158.10,0,1,0,97,100,-10440,3644,11917,2971.50,7,WP,1,0,0,0,0,0,0,1601385508725,4096,4081,4079,0,0,0,13,,,,,,,0,0,0,11.00,24.00,1581.00,0.00,0.00,1581.00,14,107.00,32.00,1.41,0.00,0.00,-32.00,0,,,100,100,0,1,0,0,0,1,0,,,,,0.0,0.0,0
51.519521,5.858084,11.00,11.90,3.10,0.15,11.00,11.00,4.10,0.36,13693,2020-09-29 13:18:28.818,2020-09-29 15:18:28.818,19,0,0,11.917,51.519521,5.858086,0.00,0.00,-3.10,-1.20,2.40,158.10,0,1,0,97,100,-10440,3644,11917,2971.50,7,WP,1,0,0,0,0,0,0,1601385508817,4096,4081,4079,0,0,0,13,,,,,,,0,0,0,12.00,24.00,1581.00,0.00,0.00,1581.00,14,110.00,31.00,1.49,0.00,0.00,-31.00,0,,,100,100,0,1,0,0,0,1,0,,,,,0.0,0.0,0
51.519521,5.858084,11.30,12.20,3.00,0.16,11.30,11.30,4.10,0.36,13791,2020-09-29 13:18:28.916,2020-09-29 15:18:28.916,19,0,0,11.917,51.519521,5.858086,0.00,0.00,-3.00,-1.30,2.40,158.20,0,1,0,97,100,-10440,3644,11917,2971.50,7,WP,1,0,0,0,0,0,0,1601385508915,4096,4081,4079,0,0,0,13,,,,,,,0,0,0,13.00,24.00,1582.00,0.00,0.00,1581.00,14,113.00,30.00,1.55,0.00,0.00,-30.00,0,,,100,100,0,1,0,0,0,1,0,,,,,0.0,0.0,0
51.519521,5.858084,11.60,12.50,2.80,0.16,11.60,11.60,4.10,0.36,13895,2020-09-29 13:18:29.019,2020-09-29 15:18:29.020,19,0,0,11.917,51.519521,5.858086,0.00,0.00,-2.80,-1.40,2.50,158.20,0,1,0,97,100,-10440,3644,11917,2971.50,7,WP,1,0,0,0,0,0,0,1601385509019,4096,4081,4079,0,0,0,13,,,,,,,0,0,0,14.00,25.00,1582.00,0.00,0.00,1581.00,14,116.00,28.00,1.64,0.00,0.00,-28.00,0,,,100,100,0,1,0,0,0,1,0,,,,,0.0,0.0,0
51.519521,5.858083,11.90,12.70,2.60,0.17,11.90,11.90,4.10,0.36,13991,2020-09-29 13:18:29.116,2020-09-29 15:18:29.116,19,0,0,11.917,51.519521,5.858086,0.00,0.00,-2.60,-1.50,2.40,158.20,0,1,0,97,100,-10440,3644,11917,2971.50,7,WP,1,0,0,0,0,0,0,1601385509115,4096,4081,4079,0,0,0,13,,,,,,,0,0,0,15.00,24.00,1582.00,0.00,0.00,1581.00,14,119.00,26.00,1.72,0.00,0.00,-26.00,0,,,100,100,0,1,0,0,0,1,0,,,,,0.0,0.0,0
51.519521,5.858083,12.10,0.00,2.40,0.18,12.10,12.10,4.10,0.36,14102,2020-09-29 13:18:29.227,2020-09-29 15:18:29.227,19,0,0,11.917,51.519521,5.858086,0.00,0.00,-2.40,-1.60,2.20,158.10,0,1,0,97,100,-10440,3644,11917,2971.50,7,WP,1,0,0,0,0,0,0,1601385509226,4096,4081,4079,0,0,0,13,,,,,,,0,0,0,16.00,22.00,1581.00,0.00,0.00,1581.00,14,121.00,24.00,1.83,0.00,0.00,-24.00,0,,,100,100,0,1,0,0,0,1,0,,,,,0.0,0.0,0
51.519521,5.858083,12.40,0.00,2.20,0.19,12.40,12.40,4.10,0.36,14199,2020-09-29 13:18:29.324,2020-09-29 15:18:29.324,19,0,0,11.917,51.519521,5.858086,0.00,0.00,-2.20,-1.80,2.10,158.10,0,1,0,97,100,-10440,3644,11917,2971.50,7,WP,1,0,0,0,0,0,0,1601385509323,4096,4081,4079,0,0,0,13,,,,,,,0,0,0,18.00,21.00,1581.00,0.00,0.00,1581.00,14,124.00,22.00,1.92,0.00,0.00,-22.00,0,,,100,100,0,1,0,0,0,1,0,,,,,0.0,0.0,0
51.519521,5.858083,12.60,0.00,2.00,0.20,12.60,12.60,4.10,0.36,14300,2020-09-29 13:18:29.425,2020-09-29 15:18:29.425,19,0,0,11.917,51.519521,5.858086,0.00,0.00,-2.00,-1.90,1.90,158.10,0,1,0,97,100,-10440,3644,11917,2971.50,7,WP,1,0,0,0,0,0,0,1601385509424,4096,4081,4079,0,0,0,13,,,,,,,0,0,0,19.00,19.00,1581.00,0.00,0.00,1581.00,14,126.00,20.00,2.03,0.00,0.00,-20.00,0,,,100,100,0,1,0,0,0,1,0,,,,,0.0,0.0,0
51.519522,5.858083,12.80,0.00,1.90,0.21,12.80,12.80,4.10,0.36,14391,2020-09-29 13:18:29.515,2020-09-29 15:18:29.516,19,0,0,11.917,51.519521,5.858086,0.00,0.00,-1.90,-2.00,1.70,158.00,0,1,0,97,100,-10440,3644,11917,2971.50,7,WP,1,0,0,0,0,0,0,1601385509515,4096,4081,4079,0,0,0,13,,,,,,,0,0,0,20.00,17.00,1580.00,0.00,0.00,1581.00,14,128.00,19.00,2.12,0.00,0.00,-19.00,0,,,100,100,0,1,0,0,0,1,0,,,,,0.0,0.0,0
51.519522,5.858083,12.90,0.00,1.80,0.22,12.90,12.90,4.10,0.36,14491,2020-09-29 13:18:29.615,2020-09-29 15:18:29.615,19,0,0,11.917,51.519521,5.858086,0.00,0.00,-1.80,-2.30,1.80,158.00,0,1,0,97,100,-10440,3644,11917,2971.50,7,WP,1,0,0,0,0,0,0,1601385509615,4096,4081,4079,0,0,0,13,,,,,,,0,0,0,23.00,18.00,1580.00,0.00,0.00,1581.00,14,129.00,18.00,2.19,0.00,0.00,-18.00,0,,,100,100,0,1,0,0,0,1,0,,,,,0.0,0.0,0
