latitude,longitude,altitude(m),ultrasonicHeight(m),speed(mps),distance(m),max_altitude(m),max_ascent(m),max_speed(mps),max_distance(m),time(millisecond),datetime(utc),datetime(local),satellites,pressure(Pa),temperature(F),voltage(v),home_latitude,home_longitude,velocityX(mps),velocityY(mps),velocityZ(mps),pitch(deg),roll(deg),yaw(deg),powerlevel,isflying,istakingphoto,remainPowerPercent,remainLifePercent,currentCurrent,currentElectricity,currentVoltage,batteryTemperature,dischargeCount,flightmode,isMotorsOn,isTakingVideo,Rc_elevator,Rc_aileron,Rc_throttle,Rc_rudder,Rc_gyro,timestamp,Battery_Cell1,Battery_Cell2,Battery_Cell3,Battery_Cell4,Battery_Cell5,Battery_Cell6,Dronetype,AppVersion,Planename,FlyControllerSerialNumber,RemoteSerialNumber,BatterySerialNumber,CENTER_BATTERY.productDate,CENTER_BATTERY.serialNo,CENTER_BATTERY.fullCapacity,CENTER_BATTERY.productDateRaw,pitchRaw,rollRaw,yawRaw,gimbalPitchRaw,gimbalRollRaw,gimbalYawRaw,flyState,altitudeRaw,speedRaw,distanceRaw,velocityXRaw,velocityYRaw,velocityZRaw,data_reuse,App_Tip,App_Warning,downlinkSignalQuality,uplinkSignalQuality,transmissionChannel,rcModeSwitch,rcHome,rcPause,rcTransform,rcJoystickMode,appMode,FlyControllerSerialNumber_legacy,RemoteSerialNumber_legacy,BatterySerialNumber_legacy,Battery2SerialNumber,frontAvoidDist,backAvoidDist,isBrakingToAvoid
51.519506,5.857978,0.90,0.00,2.30,0.04,0.90,0.90,2.30,0.04,0,2020-09-29 12:10:56.647,2020-09-29 14:10:56.648,16,0,0,12.711,51.519506,5.857977,-0.10,0.00,-2.30,-3.00,-0.40,-21.90,0,1,0,98,100,-1720,3670,12711,2941.50,8,GPS,1,0,0,0,660,0,0,1601381456647,4254,4255,4253,0,0,0,13,Litchi_iOS_2.8.0,aladrian-MAVIC PRO,08RDEAJP01043R,08XUEB30061XN3,093AEB303309JT,,0,3724,0,30.00,-4.00,-219.00,0.00,0.00,-215.00,6,9.00,23.02,0.43,-1.00,0.00,-23.00,0,,,100,100,0,1,0,0,0,0,0,(null),(null),(null),(null),0.0,0.0,0
51.519506,5.857978,1.20,1.20,2.70,0.05,1.20,1.20,2.70,0.05,80,2020-09-29 12:10:56.727,2020-09-29 14:10:56.727,16,0,0,12.711,51.519506,5.857977,0.00,0.00,-2.70,-2.80,-0.90,-22.00,0,1,0,98,100,-1720,3670,12711,2941.50,8,GPS,1,0,0,0,660,0,0,1601381456727,4254,4255,4253,0,0,0,13,,,,,,,0,0,0,28.00,-9.00,-220.00,0.00,0.00,-215.00,6,12.00,27.00,0.53,0.00,0.00,-27.00,0,,,100,100,0,1,0,0,0,0,0,,,,,0.0,0.0,0
51.519506,5.857978,1.50,1.50,3.10,0.06,1.50,1.50,3.10,0.06,176,2020-09-29 12:10:56.824,2020-09-29 14:10:56.824,16,0,0,12.711,51.519506,5.857977,0.00,0.00,-3.10,-3.00,-1.10,-22.00,0,1,0,98,100,-1720,3670,12711,2941.50,8,GPS,1,0,0,0,660,0,0,1601381456823,4254,4255,4253,0,0,0,13,,,,,,,0,0,0,30.00,-11.00,-220.00,0.00,0.00,-215.00,6,15.00,31.00,0.58,0.00,0.00,-31.00,0,,,100,100,0,1,0,0,0,0,0,,,,,0.0,0.0,0
51.519506,5.857978,1.80,1.90,3.50,0.06,1.80,1.80,3.50,0.06,280,2020-09-29 12:10:56.928,2020-09-29 14:10:56.928,16,0,0,12.711,51.519506,5.857977,0.00,0.00,-3.50,-2.90,-0.90,-22.00,0,1,0,98,100,-1720,3670,12711,2941.50,8,GPS,1,0,0,0,660,-39,0,1601381456927,4254,4255,4253,0,0,0,13,,,,,,,0,0,0,29.00,-9.00,-220.00,0.00,0.00,-215.00,6,18.00,35.00,0.61,0.00,0.00,-35.00,0,,,100,100,0,1,0,0,0,0,0,,,,,0.0,0.0,0
51.519506,5.857978,2.20,2.20,3.70,0.07,2.20,2.20,3.70,0.07,380,2020-09-29 12:10:57.027,2020-09-29 14:10:57.028,16,0,0,12.711,51.519506,5.857977,0.00,0.00,-3.70,-2.90,-0.50,-22.00,0,1,0,98,100,-1720,3670,12711,2941.50,8,GPS,1,0,0,0,0,0,0,1601381457027,4254,4255,4253,0,0,0,13,,,,,,,0,0,0,29.00,-5.00,-220.00,0.00,0.00,-215.00,6,22.00,37.00,0.69,0.00,0.00,-37.00,0,,,100,100,0,1,0,0,0,0,0,,,,,0.0,0.0,0
51.519506,5.857979,2.60,2.60,3.80,0.08,2.60,2.60,3.80,0.08,479,2020-09-29 12:10:57.126,2020-09-29 14:10:57.126,16,0,0,12.711,51.519506,5.857977,0.00,0.00,-3.80,-3.10,-0.40,-21.80,0,1,0,98,100,-1720,3670,12711,2941.50,8,GPS,1,0,0,0,0,0,0,1601381457126,4254,4255,4253,0,0,0,13,,,,,,,0,0,0,31.00,-4.00,-218.00,0.00,0.00,-215.00,6,26.00,38.00,0.76,0.00,0.00,-38.00,0,,,100,100,0,1,0,0,0,0,0,,,,,0.0,0.0,0
51.519506,5.857979,2.90,3.00,3.70,0.08,2.90,2.90,3.80,0.08,577,2020-09-29 12:10:57.225,2020-09-29 14:10:57.225,16,0,0,12.711,51.519506,5.857977,0.00,0.00,-3.70,-3.20,-0.40,-21.70,0,1,0,98,100,-1720,3670,12711,2941.50,8,GPS,1,0,0,0,0,0,0,1601381457224,4254,4255,4253,0,0,0,13,,,,,,,0,0,0,32.00,-4.00,-217.00,0.00,0.00,-215.00,6,29.00,37.00,0.84,0.00,0.00,-37.00,0,,,100,100,0,1,0,0,0,0,0,,,,,0.0,0.0,0
51.519506,5.857979,3.30,3.40,3.60,0.09,3.30,3.30,3.80,0.09,686,2020-09-29 12:10:57.333,2020-09-29 14:10:57.333,16,0,0,12.141,51.519506,5.857977,0.00,0.00,-3.60,-3.10,-0.50,-21.60,0,1,0,98,100,-6670,3668,12141,2941.50,8,GPS,1,0,0,0,0,0,0,1601381457333,4254,4255,4253,0,0,0,13,,,,,,,0,0,0,31.00,-5.00,-216.00,0.00,0.00,-215.00,6,33.00,36.00,0.90,0.00,0.00,-36.00,0,,,100,100,0,1,0,0,0,0,0,,,,,0.0,0.0,0
51.519506,5.857979,3.70,3.70,3.30,0.10,3.70,3.70,3.80,0.10,788,2020-09-29 12:10:57.435,2020-09-29 14:10:57.435,16,0,0,12.141,51.519506,5.857977,0.00,0.00,-3.30,-3.00,-0.60,-21.60,0,1,0,98,100,-6670,3668,12141,2941.50,8,GPS,1,0,0,0,0,0,0,1601381457435,4254,4255,4253,0,0,0,13,,,,,,,0,0,0,30.00,-6.00,-216.00,0.00,0.00,-215.00,6,37.00,33.00,1.05,0.00,0.00,-33.00,0,,,100,100,0,1,0,0,0,0,0,,,,,0.0,0.0,0
51.519506,5.857979,4.00,4.10,3.00,0.12,4.00,4.00,3.80,0.12,880,2020-09-29 12:10:57.527,2020-09-29 14:10:57.527,16,0,0,12.141,51.519506,5.857977,0.00,0.00,-3.00,-2.80,-0.60,-21.50,0,1,0,98,100,-6670,3668,12141,2941.50,8,GPS,1,0,0,0,0,0,0,1601381457527,4254,4255,4253,0,0,0,13,,,,,,,0,0,0,28.00,-6.00,-215.00,0.00,0.00,-215.00,6,40.00,30.00,1.17,0.00,0.00,-30.00,0,,,100,100,0,1,0,0,0,0,0,,,,,0.0,0.0,0
51.519506,5.857979,4.30,4.40,2.70,0.13,4.30,4.30,3.80,0.13,997,2020-09-29 12:10:57.644,2020-09-29 14:10:57.644,16,0,0,12.141,51.519506,5.857977,0.00,0.00,-2.70,-2.50,-0.90,-21.40,0,1,0,98,100,-6670,3668,12141,2941.50,8,GPS,1,0,0,0,0,0,0,1601381457644,4254,4255,4253,0,0,0,13,,,,,,,0,0,0,25.00,-9.00,-214.00,0.00,0.00,-215.00,6,43.00,27.00,1.30,0.00,0.00,-27.00,0,,,100,100,0,1,0,0,0,0,0,,,,,0.0,0.0,0
51.519506,5.857979,4.50,4.60,2.30,0.14,4.50,4.50,3.80,0.14,1081,2020-09-29 12:10:57.729,2020-09-29 14:10:57.729,16,0,0,12.141,51.519506,5.857977,0.00,0.00,-2.30,-2.20,-1.00,-21.40,0,1,0,98,100,-6670,3668,12141,2941.50,8,GPS,1,0,0,0,0,0,0,1601381457728,4254,4255,4253,0,0,0,13,,,,,,,0,0,0,22.00,-10.00,-214.00,0.00,0.00,-215.00,6,45.00,23.00,1.40,0.00,0.00,-23.00,0,,,100,100,0,1,0,0,0,0,0,,,,,0.0,0.0,0
51.519506,5.857980,4.70,4.90,1.80,0.15,4.70,4.70,3.80,0.15,1187,2020-09-29 12:10:57.835,2020-09-29 14:10:57.835,16,0,0,12.141,51.519506,5.857977,0.00,0.00,-1.80,-2.00,-1.40,-21.40,0,1,0,98,100,-6670,3668,12141,2941.50,8,GPS,1,0,0,0,0,0,0,1601381457834,4254,4255,4253,0,0,0,13,,,,,,,0,0,0,20.00,-14.00,-214.00,0.00,0.00,-215.00,6,47.00,18.00,1.48,0.00,0.00,-18.00,0,,,100,100,0,1,0,0,0,0,0,,,,,0.0,0.0,0
51.519506,5.857980,4.90,5.10,1.40,0.16,4.90,4.90,3.80,0.16,1277,2020-09-29 12:10:57.924,2020-09-29 14:10:57.924,16,0,0,12.141,51.519506,5.857977,0.00,0.00,-1.40,-2.00,-1.60,-21.40,0,1,0,98,100,-6670,3668,12141,2941.50,8,GPS,1,0,0,0,0,0,0,1601381457924,4254,4255,4253,0,0,0,13,,,,,,,0,0,0,20.00,-16.00,-214.00,0.00,0.00,-215.00,6,49.00,14.00,1.55,0.00,0.00,-14.00,0,,,100,100,0,1,0,0,0,0,0,,,,,0.0,0.0,0
51.519506,5.857980,5.00,5.20,1.00,0.16,5.00,5.00,3.80,0.16,1381,2020-09-29 12:10:58.028,2020-09-29 14:10:58.028,16,0,0,12.141,51.519506,5.857977,0.00,0.00,-1.00,-1.80,-1.70,-21.40,0,1,0,98,100,-6670,3668,12141,2941.50,8,GPS,1,0,0,0,0,0,0,1601381458028,4254,4255,4253,0,0,0,13,,,,,,,0,0,0,18.00,-17.00,-214.00,0.00,0.00,-215.00,6,50.00,10.00,1.60,0.00,0.00,-10.00,0,,,100,100,0,1,0,0,0,0,0,,,,,0.0,0.0,0
51.519506,5.857980,5.10,5.40,0.60,0.16,5.10,5.10,3.80,0.16,1480,2020-09-29 12:10:58.127,2020-09-29 14:10:58.128,16,0,0,12.141,51.519506,5.857977,0.00,0.00,-0.60,-1.60,-1.80,-21.50,0,1,0,98,100,-6670,3668,12141,2941.50,8,GPS,1,0,0,0,0,0,0,1601381458127,4254,4255,4253,0,0,0,13,,,,,,,0,0,0,16.00,-18.00,-215.00,0.00,0.00,-215.00,6,51.00,6.00,1.65,0.00,0.00,-6.00,0,,,100,100,0,1,0,0,0,0,0,,,,,0.0,0.0,0
51.519506,5.857980,5.10,5.40,0.30,0.17,5.10,5.10,3.80,0.17,1581,2020-09-29 12:10:58.229,2020-09-29 14:10:58.229,16,0,0,12.141,51.519506,5.857977,0.00,0.00,-0.30,-1.40,-1.70,-21.50,0,1,0,98,100,-6670,3668,12141,2941.50,8,GPS,1,0,0,0,0,0,0,1601381458228,4254,4255,4253,0,0,0,13,,,,,,,0,0,0,14.00,-17.00,-215.00,0.00,0.00,-215.00,6,51.00,3.00,1.70,0.00,0.00,-3.00,0,,,100,100,0,1,0,0,0,0,0,,,,,0.0,0.0,0
51.519506,5.857980,5.10,5.50,0.10,0.17,5.10,5.10,3.80,0.17,1679,2020-09-29 12:10:58.327,2020-09-29 14:10:58.327,16,0,0,12.141,51.519506,5.857977,0.00,0.00,-0.10,-1.30,-1.50,-21.60,0,1,0,98,100,-6670,3668,12141,2941.50,8,GPS,1,0,0,0,0,0,0,1601381458326,4254,4255,4253,0,0,0,13,,,,,,,0,0,0,13.00,-15.00,-216.00,0.00,0.00,-215.00,6,51.00,1.00,1.75,0.00,0.00,-1.00,0,,,100,100,0,1,0,0,0,0,0,,,,,0.0,0.0,0
51.519506,5.857980,5.10,5.50,0.00,0.17,5.10,5.10,3.80,0.17,1797,2020-09-29 12:10:58.444,2020-09-29 14:10:58.444,16,0,0,12.141,51.519506,5.857977,0.00,0.00,0.00,-1.20,-1.40,-21.60,0,1,0,98,100,-6670,3668,12141,2941.50,8,GPS,1,0,0,0,0,0,0,1601381458444,4254,4255,4253,0,0,0,13,,,,,,,0,0,0,12.00,-14.00,-216.00,0.00,0.00,-215.00,6,51.00,0.00,1.72,0.00,0.00,0.00,0,,,100,100,0,1,0,0,0,0,0,,,,,0.0,0.0,0
51.519506,5.857980,5.10,5.60,0.10,0.17,5.10,5.10,3.80,0.17,1880,2020-09-29 12:10:58.527,2020-09-29 14:10:58.527,16,0,0,12.141,51.519506,5.857977,0.00,0.00,0.10,-1.40,-1.30,-21.60,0,1,0,98,100,-6670,3668,12141,2941.50,8,GPS,1,0,0,0,0,0,0,1601381458527,4254,4255,4253,0,0,0,13,,,,,,,0,0,0,14.00,-13.00,-216.00,0.00,0.00,-215.00,6,51.00,1.00,1.70,0.00,0.00,1.00,0,,,100,100,0,1,0,0,0,0,0,,,,,0.0,0.0,0
51.519506,5.857980,5.10,5.60,0.10,0.17,5.10,5.10,3.80,0.17,2016,2020-09-29 12:10:58.663,2020-09-29 14:10:58.663,16,0,0,12.141,51.519506,5.857977,0.00,0.00,0.10,-1.60,-1.20,-21.60,0,1,0,98,100,-6670,3668,12141,2941.50,8,GPS,1,0,0,0,0,0,0,1601381458663,4254,4255,4253,0,0,0,13,,,,,,,0,0,0,16.00,-12.00,-216.00,0.00,0.00,-215.00,6,51.00,1.00,1.72,0.00,0.00,1.00,0,,,100,100,0,1,0,0,0,0,0,,,,,0.0,0.0,0
51.519506,5.857980,5.10,5.60,0.00,0.18,5.10,5.10,3.80,0.18,2079,2020-09-29 12:10:58.727,2020-09-29 14:10:58.727,16,0,0,12.141,51.519506,5.857977,0.00,0.00,0.00,-1.70,-1.20,-21.60,0,1,0,98,100,-6670,3668,12141,2941.50,8,GPS,1,0,0,0,0,0,0,1601381458726,4254,4255,4253,0,0,0,13,,,,,,,0,0,0,17.00,-12.00,-216.00,0.00,0.00,-215.00,6,51.00,0.00,1.75,0.00,0.00,0.00,0,,,100,100,0,1,0,0,0,0,0,,,,,0.0,0.0,0
51.519506,5.857980,5.10,5.60,0.00,0.18,5.10,5.10,3.80,0.18,2165,2020-09-29 12:10:58.813,2020-09-29 14:10:58.813,16,0,0,12.141,51.519506,5.857977,0.00,0.00,0.00,-1.70,-1.10,-21.60,0,1,0,98,100,-6670,3668,12141,2941.50,8,GPS,1,0,0,0,0,0,0,1601381458812,4254,4255,4253,0,0,0,13,,,,,,,0,0,0,17.00,-11.00,-216.00,0.00,0.00,-215.00,6,51.00,0.00,1.77,0.00,0.00,0.00,0,,,100,100,0,1,0,0,0,0,0,,,,,0.0,0.0,0
51.519506,5.857980,5.10,5.70,0.00,0.18,5.10,5.10,3.80,0.18,2262,2020-09-29 12:10:58.910,2020-09-29 14:10:58.910,16,0,0,12.141,51.519506,5.857977,0.00,0.00,0.00,-1.60,-1.20,-21.60,0,1,0,98,100,-6670,3668,12141,2941.50,8,GPS,1,0,0,0,0,0,0,1601381458909,4254,4255,4253,0,0,0,13,,,,,,,0,0,0,16.00,-12.00,-216.00,0.00,0.00,-215.00,6,51.00,0.00,1.79,0.00,0.00,0.00,0,,,100,100,0,1,0,0,0,0,0,,,,,0.0,0.0,0
51.519506,5.857980,5.10,5.70,0.00,0.18,5.10,5.10,3.80,0.18,2365,2020-09-29 12:10:59.013,2020-09-29 14:10:59.013,16,0,0,12.141,51.519506,5.857977,0.00,0.00,0.00,-1.70,-1.40,-21.50,0,1,0,98,100,-6670,3668,12141,2941.50,8,GPS,1,0,0,0,0,0,0,1601381459012,4254,4255,4253,0,0,0,13,,,,,,,0,0,0,17.00,-14.00,-215.00,0.00,0.00,-215.00,6,51.00,0.00,1.81,0.00,0.00,0.00,0,,,100,100,0,1,0,0,0,0,0,,,,,0.0,0.0,0
51.519506,5.857980,5.10,5.70,0.00,0.18,5.10,5.10,3.80,0.18,2490,2020-09-29 12:10:59.138,2020-09-29 14:10:59.138,16,0,0,12.141,51.519506,5.857977,0.00,0.00,0.00,-1.70,-1.40,-21.50,0,1,0,98,100,-6670,3668,12141,2941.50,8,GPS,1,0,0,0,0,0,0,1601381459137,4254,4255,4253,0,0,0,13,,,,,,,0,0,0,17.00,-14.00,-215.00,0.00,0.00,-215.00,6,51.00,0.00,1.82,0.00,0.00,0.00,0,,,100,100,0,1,0,0,0,0,0,,,,,0.0,0.0,0
51.519506,5.857980,5.20,5.70,0.10,0.18,5.20,5.20,3.80,0.18,2580,2020-09-29 12:10:59.228,2020-09-29 14:10:59.228,16,0,0,12.141,51.519506,5.857977,0.00,0.00,-0.10,-1.60,-1.30,-21.40,0,1,0,98,100,-6670,3668,12141,2941.50,8,GPS,1,0,0,0,0,0,0,1601381459227,4254,4255,4253,0,0,0,13,,,,,,,0,0,0,16.00,-13.00,-214.00,0.00,0.00,-215.00,6,52.00,1.00,1.82,0.00,0.00,-1.00,0,,,100,100,0,1,0,0,0,0,0,,,,,0.0,0.0,0
51.519507,5.857980,5.20,5.80,0.10,0.18,5.20,5.20,3.80,0.18,2672,2020-09-29 12:10:59.320,2020-09-29 14:10:59.320,16,0,0,12.500,51.519506,5.857977,0.00,0.00,-0.10,-1.70,-1.20,-21.40,0,1,0,98,100,-6086,3662,12500,2941.50,8,GPS,1,0,0,0,0,0,0,1601381459319,4254,4255,4253,0,0,0,13,,,,,,,0,0,0,17.00,-12.00,-214.00,0.00,0.00,-215.00,6,52.00,1.00,1.83,0.00,0.00,-1.00,0,,,100,100,0,1,0,0,0,0,0,,,,,0.0,0.0,0
51.519507,5.857980,5.20,5.80,0.10,0.18,5.20,5.20,3.80,0.18,2774,2020-09-29 12:10:59.422,2020-09-29 14:10:59.422,16,0,0,12.500,51.519506,5.857977,0.00,0.00,-0.10,-1.70,-1.20,-21.50,0,1,0,98,100,-6086,3662,12500,2941.50,8,GPS,1,0,0,0,0,0,0,1601381459421,4254,4255,4253,0,0,0,13,,,,,,,0,0,0,17.00,-12.00,-215.00,0.00,0.00,-215.00,6,52.00,1.00,1.82,0.00,0.00,-1.00,0,,,100,100,0,1,0,0,0,0,0,,,,,0.0,0.0,0
51.519507,5.857980,5.20,5.80,0.00,0.18,5.20,5.20,3.80,0.18,2883,2020-09-29 12:10:59.531,2020-09-29 14:10:59.531,16,0,0,12.500,51.519506,5.857977,0.00,0.00,0.00,-1.60,-1.30,-21.50,0,1,0,98,100,-6086,3662,12500,2941.50,8,GPS,1,0,0,0,0,0,0,1601381459530,4254,4255,4253,0,0,0,13,,,,,,,0,0,0,16.00,-13.00,-215.00,0.00,0.00,-215.00,6,52.00,0.00,1.83,0.00,0.00,0.00,0,,,100,100,0,1,0,0,0,0,0,,,,,0.0,0.0,0
51.519507,5.857980,5.20,5.80,0.00,0.18,5.20,5.20,3.80,0.18,2986,2020-09-29 12:10:59.634,2020-09-29 14:10:59.634,16,0,0,12.500,51.519506,5.857977,0.00,0.00,0.00,-1.70,-1.30,-21.60,0,1,0,98,100,-6086,3662,12500,2941.50,8,GPS,1,0,0,0,0,0,0,1601381459633,4254,4255,4253,0,0,0,13,,,,,,,0,0,0,17.00,-13.00,-216.00,0.00,0.00,-215.00,6,52.00,0.00,1.80,0.00,0.00,0.00,0,,,100,100,0,1,0,0,0,0,0,,,,,0.0,0.0,0
51.519507,5.857980,5.20,5.80,0.00,0.18,5.20,5.20,3.80,0.18,3078,2020-09-29 12:10:59.726,2020-09-29 14:10:59.726,16,0,0,12.500,51.519506,5.857977,0.00,0.00,0.00,-1.80,-1.10,-21.60,0,1,0,98,100,-6086,3662,12500,2941.50,8,GPS,1,0,0,0,0,0,0,1601381459725,4254,4255,4253,0,0,0,13,,,,,,,0,0,0,18.00,-11.00,-216.00,0.00,0.00,-215.00,6,52.00,0.00,1.79,0.00,0.00,0.00,0,,,100,100,0,1,0,0,0,0,0,,,,,0.0,0.0,0
51.519507,5.857980,5.20,5.80,0.00,0.18,5.20,5.20,3.80,0.18,3179,2020-09-29 12:10:59.827,2020-09-29 14:10:59.827,16,0,0,12.500,51.519506,5.857977,0.00,0.00,0.00,-1.50,-1.30,-21.60,0,1,0,98,100,-6086,3662,12500,2941.50,8,GPS,1,0,0,0,0,0,0,1601381459826,4254,4255,4253,0,0,0,13,,,,,,,0,0,0,15.00,-13.00,-216.00,0.00,0.00,-215.00,6,52.00,0.00,1.77,0.00,0.00,0.00,0,,,100,100,0,1,0,0,0,0,0,,,,,0.0,0.0,0
51.519507,5.857980,5.20,5.80,0.00,0.18,5.20,5.20,3.80,0.18,3282,2020-09-29 12:10:59.930,2020-09-29 14:10:59.930,16,0,0,12.500,51.519506,5.857977,0.00,0.00,0.00,-1.40,-1.70,-21.70,0,1,0,98,100,-6086,3662,12500,2941.50,8,GPS,1,0,0,0,0,0,0,1601381459929,4254,4255,4253,0,0,0,13,,,,,,,0,0,0,14.00,-17.00,-217.00,0.00,0.00,-215.00,6,52.00,0.00,1.77,0.00,0.00,0.00,0,,,100,100,0,1,0,0,0,0,0,,,,,0.0,0.0,0
51.519507,5.857980,5.20,5.80,0.00,0.18,5.20,5.20,3.80,0.18,3384,2020-09-29 12:11:00.031,2020-09-29 14:11:00.031,16,0,0,12.500,51.519506,5.857977,0.00,0.00,0.00,-1.40,-1.60,-21.80,0,1,0,98,100,-6086,3662,12500,2941.50,8,GPS,1,0,0,0,0,0,0,1601381460031,4254,4255,4253,0,0,0,13,,,,,,,0,0,0,14.00,-16.00,-218.00,0.00,0.00,-215.00,6,52.00,0.00,1.80,0.00,0.00,0.00,0,,,100,100,0,1,0,0,0,0,0,,,,,0.0,0.0,0
51.519507,5.857980,5.20,5.90,0.00,0.18,5.20,5.20,3.80,0.18,3497,2020-09-29 12:11:00.145,2020-09-29 14:11:00.145,16,0,0,12.500,51.519506,5.857977,0.00,0.00,0.00,-1.50,-1.70,-21.90,0,1,0,98,100,-6086,3662,12500,2941.50,8,GPS,1,0,0,0,0,0,0,1601381460144,4254,4255,4253,0,0,0,13,,,,,,,0,0,0,15.00,-17.00,-219.00,0.00,0.00,-215.00,6,52.00,0.00,1.82,0.00,0.00,0.00,0,,,100,100,0,1,0,0,0,0,0,,,,,0.0,0.0,0
51.519507,5.857980,5.20,5.80,0.00,0.18,5.20,5.20,3.80,0.18,3580,2020-09-29 12:11:00.227,2020-09-29 14:11:00.227,16,0,0,12.500,51.519506,5.857977,0.00,0.00,0.00,-1.60,-1.70,-21.90,0,1,0,98,100,-6086,3662,12500,2941.50,8,GPS,1,0,0,0,0,0,0,1601381460227,4254,4255,4253,0,0,0,13,,,,,,,0,0,0,16.00,-17.00,-219.00,0.00,0.00,-215.00,6,52.00,0.00,1.84,0.00,0.00,0.00,0,,,100,100,0,1,0,0,0,0,0,,,,,0.0,0.0,0
51.519507,5.857980,5.20,5.80,0.00,0.19,5.20,5.20,3.80,0.19,3672,2020-09-29 12:11:00.320,2020-09-29 14:11:00.320,16,0,0,12.500,51.519506,5.857977,0.00,0.00,0.00,-1.70,-1.70,-21.80,0,1,0,98,100,-6086,3662,12500,2941.50,8,GPS,1,0,0,0,0,0,0,1601381460319,4254,4255,4253,0,0,0,13,,,,,,,0,0,0,17.00,-17.00,-218.00,0.00,0.00,-215.00,6,52.00,0.00,1.85,0.00,0.00,0.00,0,,,100,100,0,1,0,0,0,0,0,,,,,0.0,0.0,0
51.519507,5.857980,5.20,5.80,0.00,0.19,5.20,5.20,3.80,0.19,3799,2020-09-29 12:11:00.447,2020-09-29 14:11:00.447,16,0,0,12.500,51.519506,5.857977,0.00,0.00,0.00,-1.60,-1.30,-21.90,0,1,0,98,100,-6086,3662,12500,2941.50,8,GPS,1,0,0,0,0,0,0,1601381460446,4254,4255,4253,0,0,0,13,,,,,,,0,0,0,16.00,-13.00,-219.00,0.00,0.00,-215.00,6,52.00,0.00,1.85,0.00,0.00,0.00,0,,,100,100,0,1,0,0,0,0,0,,,,,0.0,0.0,0
51.519507,5.857980,5.20,5.80,0.00,0.18,5.20,5.20,3.80,0.19,3883,2020-09-29 12:11:00.530,2020-09-29 14:11:00.530,16,0,0,12.500,51.519506,5.857977,0.00,0.00,0.00,-1.50,-1.20,-21.80,0,1,0,98,100,-6086,3662,12500,2941.50,8,GPS,1,0,0,0,0,0,0,1601381460530,4254,4255,4253,0,0,0,13,,,,,,,0,0,0,15.00,-12.00,-218.00,0.00,0.00,-215.00,6,52.00,0.00,1.84,0.00,0.00,0.00,0,,,100,100,0,1,0,0,0,0,0,,,,,0.0,0.0,0
51.519507,5.857980,5.20,5.80,0.00,0.18,5.20,5.20,3.80,0.19,3983,2020-09-29 12:11:00.631,2020-09-29 14:11:00.631,16,0,0,12.500,51.519506,5.857977,0.00,0.00,0.00,-1.30,-1.00,-21.80,0,1,0,98,100,-6086,3662,12500,2941.50,8,GPS,1,0,0,0,0,0,0,1601381460630,4254,4255,4253,0,0,0,13,,,,,,,0,0,0,13.00,-10.00,-218.00,0.00,0.00,-215.00,6,52.00,0.00,1.83,0.00,0.00,0.00,0,,,100,100,0,1,0,0,0,0,0,,,,,0.0,0.0,0
51.519507,5.857980,5.20,5.80,0.00,0.18,5.20,5.20,3.80,0.19,4081,2020-09-29 12:11:00.729,2020-09-29 14:11:00.729,16,0,0,12.500,51.519506,5.857977,0.00,0.00,0.00,-1.30,-1.00,-21.70,0,1,0,98,100,-6086,3662,12500,2941.50,8,GPS,1,0,0,0,0,0,0,1601381460728,4254,4255,4253,0,0,0,13,,,,,,,0,0,0,13.00,-10.00,-217.00,0.00,0.00,-215.00,6,52.00,0.00,1.83,0.00,0.00,0.00,0,,,100,100,0,1,0,0,0,0,0,,,,,0.0,0.0,0
51.519507,5.857980,5.20,5.80,0.00,0.18,5.20,5.20,3.80,0.19,4181,2020-09-29 12:11:00.828,2020-09-29 14:11:00.828,16,0,0,12.500,51.519506,5.857977,0.00,0.00,0.00,-1.50,-1.20,-21.70,0,1,0,98,100,-6086,3662,12500,2941.50,8,GPS,1,0,0,0,0,0,0,1601381460828,4254,4255,4253,0,0,0,13,,,,,,,0,0,0,15.00,-12.00,-217.00,0.00,0.00,-215.00,6,52.00,0.00,1.82,0.00,0.00,0.00,0,,,100,100,0,1,0,0,0,0,0,,,,,0.0,0.0,0
51.519507,5.857980,5.20,5.80,0.00,0.18,5.20,5.20,3.80,0.19,4283,2020-09-29 12:11:00.931,2020-09-29 14:11:00.931,16,0,0,12.500,51.519506,5.857977,0.00,0.00,0.00,-1.70,-1.10,-21.70,0,1,0,98,100,-6086,3662,12500,2941.50,8,GPS,1,0,0,0,0,0,0,1601381460930,4254,4255,4253,0,0,0,13,,,,,,,0,0,0,17.00,-11.00,-217.00,0.00,0.00,-215.00,6,52.00,0.00,1.81,0.00,0.00,0.00,0,,,100,100,0,1,0,0,0,0,0,,,,,0.0,0.0,0
51.519507,5.857980,5.20,5.80,0.00,0.18,5.20,5.20,3.80,0.19,4379,2020-09-29 12:11:01.026,2020-09-29 14:11:01.026,16,0,0,12.500,51.519506,5.857977,0.00,0.00,0.00,-1.60,-1.00,-21.70,0,1,0,98,100,-6086,3662,12500,2941.50,8,GPS,1,0,0,0,0,0,0,1601381461026,4254,4255,4253,0,0,0,13,,,,,,,0,0,0,16.00,-10.00,-217.00,0.00,0.00,-215.00,6,52.00,0.00,1.81,0.00,0.00,0.00,0,,,100,100,0,1,0,0,0,0,0,,,,,0.0,0.0,0
51.519507,5.857980,5.20,5.80,0.00,0.18,5.20,5.20,3.80,0.19,4500,2020-09-29 12:11:01.148,2020-09-29 14:11:01.148,16,0,0,12.500,51.519506,5.857977,0.00,0.00,0.00,-1.60,-1.10,-21.70,0,1,0,98,100,-6086,3662,12500,2941.50,8,GPS,1,0,0,0,0,0,0,1601381461147,4254,4255,4253,0,0,0,13,,,,,,,0,0,0,16.00,-11.00,-217.00,0.00,0.00,-215.00,6,52.00,0.00,1.82,0.00,0.00,0.00,0,,,100,100,0,1,0,0,0,0,0,,,,,0.0,0.0,0
51.519507,5.857980,5.20,5.80,0.00,0.18,5.20,5.20,3.80,0.19,4600,2020-09-29 12:11:01.247,2020-09-29 14:11:01.247,16,0,0,12.500,51.519506,5.857977,0.00,0.00,0.00,-1.40,-1.30,-21.60,0,1,0,98,100,-6086,3662,12500,2941.50,8,GPS,1,0,0,0,0,0,0,1601381461247,4254,4255,4253,0,0,0,13,,,,,,,0,0,0,14.00,-13.00,-216.00,0.00,0.00,-215.00,6,52.00,0.00,1.85,0.00,0.00,0.00,0,,,100,100,0,1,0,0,0,0,0,,,,,0.0,0.0,0
51.519507,5.857980,5.20,5.80,0.00,0.19,5.20,5.20,3.80,0.19,4681,2020-09-29 12:11:01.329,2020-09-29 14:11:01.329,16,0,0,12.352,51.519506,5.857977,0.00,0.00,0.00,-1.30,-1.30,-21.70,0,1,0,98,100,-6872,3659,12352,2941.50,8,GPS,1,0,0,0,0,0,0,1601381461328,4095,4092,4098,0,0,0,13,,,,,,,0,0,0,13.00,-13.00,-217.00,0.00,0.00,-215.00,6,52.00,0.00,1.88,0.00,0.00,0.00,0,,,100,100,0,1,0,0,0,0,0,,,,,0.0,0.0,0
51.519507,5.857980,5.20,5.80,0.00,0.19,5.20,5.20,3.80,0.19,4799,2020-09-29 12:11:01.447,2020-09-29 14:11:01.447,16,0,0,12.352,51.519506,5.857977,0.00,0.00,0.00,-1.30,-1.40,-21.60,0,1,0,98,100,-6872,3659,12352,2941.50,8,GPS,1,0,0,0,0,0,0,1601381461446,4095,4092,4098,0,0,0,13,,,,,,,0,0,0,13.00,-14.00,-216.00,0.00,0.00,-215.00,6,52.00,0.00,1.93,0.00,0.00,0.00,0,,,100,100,0,1,0,0,0,0,0,,,,,0.0,0.0,0
51.519507,5.857980,5.20,5.80,0.00,0.20,5.20,5.20,3.80,0.20,4883,2020-09-29 12:11:01.531,2020-09-29 14:11:01.531,16,0,0,12.352,51.519506,5.857977,0.00,0.00,0.00,-1.30,-1.50,-21.60,0,1,0,98,100,-6872,3659,12352,2941.50,8,GPS,1,0,0,0,0,0,0,1601381461530,4095,4092,4098,0,0,0,13,,,,,,,0,0,0,13.00,-15.00,-216.00,0.00,0.00,-215.00,6,52.00,0.00,1.97,0.00,0.00,0.00,0,,,100,100,0,1,0,0,0,0,0,,,,,0.0,0.0,0
51.519507,5.857980,5.20,5.80,0.00,0.20,5.20,5.20,3.80,0.20,4997,2020-09-29 12:11:01.645,2020-09-29 14:11:01.645,16,0,0,12.352,51.519506,5.857977,0.00,0.00,0.00,-1.20,-1.60,-21.60,0,1,0,98,100,-6872,3659,12352,2941.50,8,GPS,1,0,0,0,0,0,0,1601381461644,4095,4092,4098,0,0,0,13,,,,,,,0,0,0,12.00,-16.00,-216.00,0.00,0.00,-215.00,6,52.00,0.00,2.02,0.00,0.00,0.00,0,,,100,100,0,1,0,0,0,0,0,,,,,0.0,0.0,0
51.519507,5.857980,5.20,5.80,0.00,0.21,5.20,5.20,3.80,0.21,5080,2020-09-29 12:11:01.727,2020-09-29 14:11:01.727,16,0,0,12.352,51.519506,5.857977,0.00,0.00,0.00,-1.30,-1.40,-21.70,0,1,0,98,100,-6872,3659,12352,2941.50,8,GPS,1,0,0,0,0,0,0,1601381461727,4095,4092,4098,0,0,0,13,,,,,,,0,0,0,13.00,-14.00,-217.00,0.00,0.00,-215.00,6,52.00,0.00,2.07,0.00,0.00,0.00,0,,,100,100,0,1,0,0,0,0,0,,,,,0.0,0.0,0
51.519507,5.857980,5.20,5.80,0.00,0.21,5.20,5.20,3.80,0.21,5182,2020-09-29 12:11:01.829,2020-09-29 14:11:01.829,16,0,0,12.352,51.519506,5.857977,0.00,0.00,0.00,-1.20,-1.80,-21.70,0,1,0,98,100,-6872,3659,12352,2941.50,8,GPS,1,0,0,0,0,0,0,1601381461829,4095,4092,4098,0,0,0,13,,,,,,,0,0,0,12.00,-18.00,-217.00,0.00,0.00,-215.00,6,52.00,0.00,2.12,0.00,0.00,0.00,0,,,100,100,0,1,0,0,0,0,0,,,,,0.0,0.0,0
51.519507,5.857980,5.10,5.80,0.00,0.22,5.20,5.20,3.80,0.22,5283,2020-09-29 12:11:01.930,2020-09-29 14:11:01.930,16,0,0,12.352,51.519506,5.857977,0.00,0.00,0.00,-1.00,-1.90,-21.70,0,1,0,98,100,-6872,3659,12352,2941.50,8,GPS,1,0,0,0,0,0,0,1601381461930,4095,4092,4098,0,0,0,13,,,,,,,0,0,0,10.00,-19.00,-217.00,0.00,0.00,-215.00,6,51.00,0.00,2.16,0.00,0.00,0.00,0,,,100,100,0,1,0,0,0,0,0,,,,,0.0,0.0,0
51.519507,5.857980,5.10,5.80,0.00,0.22,5.20,5.20,3.80,0.22,5384,2020-09-29 12:11:02.031,2020-09-29 14:11:02.031,16,0,0,12.352,51.519506,5.857977,0.00,0.00,0.00,-1.10,-2.00,-21.60,0,1,0,98,100,-6872,3659,12352,2941.50,8,GPS,1,0,0,0,0,0,0,1601381462031,4095,4092,4098,0,0,0,13,,,,,,,0,0,0,11.00,-20.00,-216.00,0.00,0.00,-215.00,6,51.00,0.00,2.21,0.00,0.00,0.00,0,,,100,100,0,1,0,0,0,0,0,,,,,0.0,0.0,0
51.519507,5.857980,5.10,5.80,0.00,0.23,5.20,5.20,3.80,0.23,5467,2020-09-29 12:11:02.114,2020-09-29 14:11:02.114,16,0,0,12.352,51.519506,5.857977,0.00,0.00,0.00,-1.30,-1.90,-21.60,0,1,0,98,100,-6872,3659,12352,2941.50,8,GPS,1,0,0,0,0,0,0,1601381462114,4095,4092,4098,0,0,0,13,,,,,,,0,0,0,13.00,-19.00,-216.00,0.00,0.00,-215.00,6,51.00,0.00,2.25,0.00,0.00,0.00,0,,,100,100,0,1,0,0,0,0,0,,,,,0.0,0.0,0
51.519507,5.857980,5.10,5.80,0.00,0.23,5.20,5.20,3.80,0.23,5589,2020-09-29 12:11:02.236,2020-09-29 14:11:02.236,16,0,0,12.352,51.519506,5.857977,0.00,0.00,0.00,-1.60,-1.70,-21.50,0,1,0,98,100,-6872,3659,12352,2941.50,8,GPS,1,0,0,0,0,0,0,1601381462236,4095,4092,4098,0,0,0,13,,,,,,,0,0,0,16.00,-17.00,-215.00,0.00,0.00,-215.00,6,51.00,0.00,2.26,0.00,0.00,0.00,0,,,100,100,0,1,0,0,0,0,0,,,,,0.0,0.0,0
51.519507,5.857980,5.10,5.80,0.00,0.23,5.20,5.20,3.80,0.23,5664,2020-09-29 12:11:02.312,2020-09-29 14:11:02.312,16,0,0,12.352,51.519506,5.857977,0.00,0.00,0.00,-1.70,-1.70,-21.50,0,1,0,98,100,-6872,3659,12352,2941.50,8,GPS,1,0,0,0,0,0,0,1601381462311,4095,4092,4098,0,0,0,13,,,,,,,0,0,0,17.00,-17.00,-215.00,0.00,0.00,-215.00,6,51.00,0.00,2.27,0.00,0.00,0.00,0,,,100,100,0,1,0,0,0,0,0,,,,,0.0,0.0,0
51.519507,5.857980,5.10,5.80,0.00,0.23,5.20,5.20,3.80,0.23,5782,2020-09-29 12:11:02.429,2020-09-29 14:11:02.429,16,0,0,12.352,51.519506,5.857977,0.00,0.00,0.00,-1.90,-1.80,-21.50,0,1,0,98,100,-6872,3659,12352,2941.50,8,GPS,1,0,0,0,0,0,0,1601381462429,4095,4092,4098,0,0,0,13,,,,,,,0,0,0,19.00,-18.00,-215.00,0.00,0.00,-215.00,6,51.00,0.00,2.28,0.00,0.00,0.00,0,,,100,100,0,1,0,0,0,0,0,,,,,0.0,0.0,0
51.519507,5.857980,5.10,5.80,0.00,0.23,5.20,5.20,3.80,0.23,5871,2020-09-29 12:11:02.518,2020-09-29 14:11:02.518,16,0,0,12.352,51.519506,5.857977,0.00,0.00,0.00,-1.90,-1.70,-21.50,0,1,0,98,100,-6872,3659,12352,2941.50,8,GPS,1,0,0,0,0,0,0,1601381462518,4095,4092,4098,0,0,0,13,,,,,,,0,0,0,19.00,-17.00,-215.00,0.00,0.00,-215.00,6,51.00,0.00,2.29,0.00,0.00,0.00,0,,,100,100,0,1,0,0,0,0,0,,,,,0.0,0.0,0
51.519507,5.857980,5.10,5.80,0.00,0.23,5.20,5.20,3.80,0.23,5973,2020-09-29 12:11:02.621,2020-09-29 14:11:02.621,16,0,0,12.352,51.519506,5.857977,0.00,0.00,0.00,-1.70,-1.80,-21.40,0,1,0,98,100,-6872,3659,12352,2941.50,8,GPS,1,0,0,0,0,0,0,1601381462620,4095,4092,4098,0,0,0,13,,,,,,,0,0,0,17.00,-18.00,-214.00,0.00,0.00,-215.00,6,51.00,0.00,2.30,0.00,0.00,0.00,0,,,100,100,0,1,0,0,0,0,0,,,,,0.0,0.0,0
51.519507,5.857980,5.10,5.80,0.00,0.23,5.20,5.20,3.80,0.23,6089,2020-09-29 12:11:02.737,2020-09-29 14:11:02.737,16,0,0,12.352,51.519506,5.857977,0.00,0.00,0.00,-1.60,-1.90,-21.40,0,1,0,98,100,-6872,3659,12352,2941.50,8,GPS,1,0,0,0,0,0,0,1601381462736,4095,4092,4098,0,0,0,13,,,,,,,0,0,0,16.00,-19.00,-214.00,0.00,0.00,-215.00,6,51.00,0.00,2.31,0.00,0.00,0.00,0,,,100,100,0,1,0,0,0,0,0,,,,,0.0,0.0,0
51.519507,5.857980,5.10,5.80,0.00,0.23,5.20,5.20,3.80,0.23,6189,2020-09-29 12:11:02.836,2020-09-29 14:11:02.836,16,0,0,12.352,51.519506,5.857977,0.00,0.00,0.00,-1.50,-2.20,-21.40,0,1,0,98,100,-6872,3659,12352,2941.50,8,GPS,1,0,0,0,0,0,0,1601381462836,4095,4092,4098,0,0,0,13,,,,,,,0,0,0,15.00,-22.00,-214.00,0.00,0.00,-215.00,6,51.00,0.00,2.34,0.00,0.00,0.00,0,,,100,100,0,1,0,0,0,0,0,,,,,0.0,0.0,0
51.519507,5.857980,5.10,5.70,0.00,0.24,5.20,5.20,3.80,0.24,6272,2020-09-29 12:11:02.920,2020-09-29 14:11:02.920,16,0,0,12.352,51.519506,5.857977,0.00,0.00,0.00,-1.40,-2.40,-21.40,0,1,0,98,100,-6872,3659,12352,2941.50,8,GPS,1,0,0,0,0,0,0,1601381462919,4095,4092,4098,0,0,0,13,,,,,,,0,0,0,14.00,-24.00,-214.00,0.00,0.00,-215.00,6,51.00,0.00,2.36,0.00,0.00,0.00,0,,,100,100,0,1,0,0,0,0,0,,,,,0.0,0.0,0
51.519507,5.857980,5.10,5.70,0.00,0.24,5.20,5.20,3.80,0.24,6398,2020-09-29 12:11:03.045,2020-09-29 14:11:03.045,16,0,0,12.352,51.519506,5.857977,0.00,0.00,0.00,-1.60,-2.10,-21.50,0,1,0,98,100,-6872,3659,12352,2941.50,8,GPS,1,0,0,0,0,0,0,1601381463045,4095,4092,4098,0,0,0,13,,,,,,,0,0,0,16.00,-21.00,-215.00,0.00,0.00,-215.00,6,51.00,0.00,2.41,0.00,0.00,0.00,0,,,100,100,0,1,0,0,0,0,0,,,,,0.0,0.0,0
51.519508,5.857980,5.10,5.70,0.00,0.24,5.20,5.20,3.80,0.24,6490,2020-09-29 12:11:03.137,2020-09-29 14:11:03.137,16,0,0,12.352,51.519506,5.857977,0.00,0.00,0.00,-1.70,-2.00,-21.50,0,1,0,98,100,-6872,3659,12352,2941.50,8,GPS,1,0,0,0,0,0,0,1601381463137,4095,4092,4098,0,0,0,13,,,,,,,0,0,0,17.00,-20.00,-215.00,0.00,0.00,-215.00,6,51.00,0.00,2.45,0.00,0.00,0.00,0,,,100,100,0,1,0,0,0,0,0,,,,,0.0,0.0,0
51.519508,5.857980,5.10,5.70,0.00,0.25,5.20,5.20,3.80,0.25,6599,2020-09-29 12:11:03.247,2020-09-29 14:11:03.247,16,0,0,12.352,51.519506,5.857977,0.00,0.00,0.00,-1.70,-2.20,-21.50,0,1,0,98,100,-6872,3659,12352,2941.50,8,GPS,1,0,0,0,0,0,0,1601381463246,4095,4092,4098,0,0,0,13,,,,,,,0,0,0,17.00,-22.00,-215.00,0.00,0.00,-215.00,6,51.00,0.00,2.49,0.00,0.00,0.00,0,,,100,100,0,1,0,0,0,0,0,,,,,0.0,0.0,0
51.519508,5.857981,5.10,5.70,0.00,0.25,5.20,5.20,3.80,0.25,6698,2020-09-29 12:11:03.345,2020-09-29 14:11:03.345,16,0,0,12.183,51.519506,5.857977,0.00,0.00,0.00,-1.80,-2.40,-21.50,0,1,0,98,100,-7218,3655,12183,2941.50,8,GPS,1,0,0,0,0,0,0,1601381463345,4095,4092,4098,0,0,0,13,,,,,,,0,0,0,18.00,-24.00,-215.00,0.00,0.00,-215.00,6,51.00,0.00,2.54,0.00,0.00,0.00,0,,,100,100,0,1,0,0,0,0,0,,,,,0.0,0.0,0
51.519508,5.857981,5.10,5.70,0.00,0.26,5.20,5.20,3.80,0.26,6800,2020-09-29 12:11:03.447,2020-09-29 14:11:03.447,16,0,0,12.183,51.519506,5.857977,0.00,0.00,0.00,-2.00,-2.70,-21.50,0,1,0,98,100,-7218,3655,12183,2941.50,8,GPS,1,0,0,0,0,0,0,1601381463447,4095,4092,4098,0,0,0,13,,,,,,,0,0,0,20.00,-27.00,-215.00,0.00,0.00,-215.00,6,51.00,0.00,2.63,0.00,0.00,0.00,0,,,100,100,0,1,0,0,0,0,0,,,,,0.0,0.0,0
51.519508,5.857981,5.10,5.70,0.00,0.27,5.20,5.20,3.80,0.27,6883,2020-09-29 12:11:03.531,2020-09-29 14:11:03.531,16,0,0,12.183,51.519506,5.857977,0.00,0.00,0.00,-2.10,-2.90,-21.40,0,1,0,98,100,-7218,3655,12183,2941.50,8,GPS,1,0,0,0,0,0,0,1601381463530,4095,4092,4098,0,0,0,13,,,,,,,0,0,0,21.00,-29.00,-214.00,0.00,0.00,-215.00,6,51.00,0.00,2.71,0.00,0.00,0.00,0,,,100,100,0,1,0,0,0,0,0,,,,,0.0,0.0,0
51.519507,5.857981,5.10,5.70,0.00,0.28,5.20,5.20,3.80,0.28,7001,2020-09-29 12:11:03.649,2020-09-29 14:11:03.649,16,0,0,12.183,51.519506,5.857977,0.00,0.00,0.00,-2.10,-2.80,-21.40,0,1,0,98,100,-7218,3655,12183,2941.50,8,GPS,1,0,0,0,0,0,0,1601381463648,4095,4092,4098,0,0,0,13,,,,,,,0,0,0,21.00,-28.00,-214.00,0.00,0.00,-215.00,6,51.00,0.00,2.79,0.00,0.00,0.00,0,,,100,100,0,1,0,0,0,0,0,,,,,0.0,0.0,0
51.519507,5.857981,5.10,5.70,0.00,0.29,5.20,5.20,3.80,0.29,7069,2020-09-29 12:11:03.717,2020-09-29 14:11:03.717,16,0,0,12.183,51.519506,5.857977,0.00,0.00,0.00,-2.20,-2.90,-21.50,0,1,0,98,100,-7218,3655,12183,2941.50,8,GPS,1,0,0,0,0,0,0,1601381463716,4095,4092,4098,0,0,0,13,,,,,,,0,0,0,22.00,-29.00,-215.00,0.00,0.00,-215.00,6,51.00,0.00,2.86,0.00,0.00,0.00,0,,,100,100,0,1,0,0,0,0,0,,,,,0.0,0.0,0
51.519507,5.857981,5.10,5.70,0.00,0.29,5.20,5.20,3.80,0.29,7168,2020-09-29 12:11:03.816,2020-09-29 14:11:03.816,16,0,0,12.183,51.519506,5.857977,0.00,0.00,0.00,-2.40,-2.90,-21.50,0,1,0,98,100,-7218,3655,12183,2941.50,8,GPS,1,0,0,0,0,0,0,1601381463815,4095,4092,4098,0,0,0,13,,,,,,,0,0,0,24.00,-29.00,-215.00,0.00,0.00,-215.00,6,51.00,0.00,2.94,0.00,0.00,0.00,0,,,100,100,0,1,0,0,0,0,0,,,,,0.0,0.0,0
51.519507,5.857981,5.10,5.70,0.00,0.30,5.20,5.20,3.80,0.30,7302,2020-09-29 12:11:03.950,2020-09-29 14:11:03.950,16,0,0,12.183,51.519506,5.857977,0.00,0.00,0.00,-2.50,-3.10,-21.50,0,1,0,98,100,-7218,3655,12183,2941.50,8,GPS,1,0,0,0,0,0,0,1601381463949,4095,4092,4098,0,0,0,13,,,,,,,0,0,0,25.00,-31.00,-215.00,0.00,0.00,-215.00,6,51.00,0.00,3.00,0.00,0.00,0.00,0,,,100,100,0,1,0,0,0,0,0,,,,,0.0,0.0,0
51.519507,5.857981,5.10,5.70,0.00,0.31,5.20,5.20,3.80,0.31,7386,2020-09-29 12:11:04.033,2020-09-29 14:11:04.034,16,0,0,12.183,51.519506,5.857977,0.00,0.00,0.00,-2.40,-3.10,-21.40,0,1,0,98,100,-7218,3655,12183,2941.50,8,GPS,1,0,0,0,0,0,0,1601381464033,4095,4092,4098,0,0,0,13,,,,,,,0,0,0,24.00,-31.00,-214.00,0.00,0.00,-215.00,6,51.00,0.00,3.07,0.00,0.00,0.00,0,,,100,100,0,1,0,0,0,0,0,,,,,0.0,0.0,0
51.519508,5.857982,5.10,5.70,0.00,0.31,5.20,5.20,3.80,0.31,7497,2020-09-29 12:11:04.145,2020-09-29 14:11:04.145,16,0,0,12.183,51.519506,5.857977,0.00,0.00,0.00,-2.20,-3.30,-21.40,0,1,0,98,100,-7218,3655,12183,2941.50,8,GPS,1,0,0,0,0,0,0,1601381464144,4095,4092,4098,0,0,0,13,,,,,,,0,0,0,22.00,-33.00,-214.00,0.00,0.00,-215.00,6,51.00,0.00,3.12,0.00,0.00,0.00,0,,,100,100,0,1,0,0,0,0,0,,,,,0.0,0.0,0
51.519508,5.857982,5.10,5.70,0.00,0.32,5.20,5.20,3.80,0.32,7564,2020-09-29 12:11:04.212,2020-09-29 14:11:04.212,16,0,0,12.183,51.519506,5.857977,0.00,0.00,0.00,-2.10,-3.20,-21.40,0,1,0,98,100,-7218,3655,12183,2941.50,8,GPS,1,0,0,0,0,0,0,1601381464211,4095,4092,4098,0,0,0,13,,,,,,,0,0,0,21.00,-32.00,-214.00,0.00,0.00,-215.00,6,51.00,0.00,3.16,0.00,0.00,0.00,0,,,100,100,0,1,0,0,0,0,0,,,,,0.0,0.0,0
51.519508,5.857982,5.10,5.70,0.00,0.32,5.20,5.20,3.80,0.32,7683,2020-09-29 12:11:04.331,2020-09-29 14:11:04.331,16,0,0,12.183,51.519506,5.857977,0.00,0.00,0.00,-2.00,-3.10,-21.50,0,1,0,98,100,-7218,3655,12183,2941.50,8,GPS,1,0,0,0,0,0,0,1601381464330,4095,4092,4098,0,0,0,13,,,,,,,0,0,0,20.00,-31.00,-215.00,0.00,0.00,-215.00,6,51.00,0.00,3.18,0.00,0.00,0.00,0,,,100,100,0,1,0,0,0,0,0,,,,,0.0,0.0,0
51.519508,5.857982,5.10,5.70,0.00,0.32,5.20,5.20,3.80,0.32,7771,2020-09-29 12:11:04.418,2020-09-29 14:11:04.418,16,0,0,12.183,51.519506,5.857977,0.00,0.00,0.00,-2.10,-2.80,-21.40,0,1,0,98,100,-7218,3655,12183,2941.50,8,GPS,1,0,0,0,0,0,0,1601381464418,4095,4092,4098,0,0,0,13,,,,,,,0,0,0,21.00,-28.00,-214.00,0.00,0.00,-215.00,6,51.00,0.00,3.20,0.00,0.00,0.00,0,,,100,100,0,1,0,0,0,0,0,,,,,0.0,0.0,0
51.519508,5.857982,5.10,5.70,0.00,0.32,5.20,5.20,3.80,0.32,7871,2020-09-29 12:11:04.518,2020-09-29 14:11:04.518,16,0,0,12.183,51.519506,5.857977,0.00,0.00,0.00,-2.10,-2.70,-21.40,0,1,0,98,100,-7218,3655,12183,2941.50,8,GPS,1,0,0,0,0,0,0,1601381464518,4095,4092,4098,0,0,0,13,,,,,,,0,0,0,21.00,-27.00,-214.00,0.00,0.00,-215.00,6,51.00,0.00,3.20,0.00,0.00,0.00,0,,,100,100,0,1,0,0,0,0,0,,,,,0.0,0.0,0
51.519508,5.857982,5.10,5.70,0.00,0.32,5.20,5.20,3.80,0.32,7987,2020-09-29 12:11:04.634,2020-09-29 14:11:04.634,16,0,0,12.183,51.519506,5.857977,0.00,0.00,0.00,-1.90,-2.40,-21.40,0,1,0,98,100,-7218,3655,12183,2941.50,8,GPS,1,0,0,0,0,0,0,1601381464634,4095,4092,4098,0,0,0,13,,,,,,,0,0,0,19.00,-24.00,-214.00,0.00,0.00,-215.00,6,51.00,0.00,3.23,0.00,0.00,0.00,0,,,100,100,0,1,0,0,0,0,0,,,,,0.0,0.0,0
51.519508,5.857982,5.10,5.70,0.00,0.33,5.20,5.20,3.80,0.33,8071,2020-09-29 12:11:04.719,2020-09-29 14:11:04.719,16,0,0,12.183,51.519506,5.857977,0.00,0.00,0.00,-2.00,-2.50,-21.50,0,1,0,98,100,-7218,3655,12183,2941.50,8,GPS,1,0,0,0,0,0,0,1601381464718,4095,4092,4098,0,0,0,13,,,,,,,0,0,0,20.00,-25.00,-215.00,0.00,0.00,-215.00,6,51.00,0.00,3.25,0.00,0.00,0.00,0,,,100,100,0,1,0,0,0,0,0,,,,,0.0,0.0,0
51.519508,5.857982,5.10,5.60,0.00,0.33,5.20,5.20,3.80,0.33,8168,2020-09-29 12:11:04.816,2020-09-29 14:11:04.816,16,0,0,12.183,51.519506,5.857977,0.00,0.00,0.00,-2.10,-2.70,-21.50,0,1,0,98,100,-7218,3655,12183,2941.50,8,GPS,1,0,0,0,0,0,0,1601381464815,4095,4092,4098,0,0,0,13,,,,,,,0,0,0,21.00,-27.00,-215.00,0.00,0.00,-215.00,6,51.00,0.00,3.29,0.00,0.00,0.00,0,,,100,100,0,1,0,0,0,0,0,,,,,0.0,0.0,0
51.519508,5.857982,5.10,5.60,0.00,0.33,5.20,5.20,3.80,0.33,8264,2020-09-29 12:11:04.912,2020-09-29 14:11:04.912,16,0,0,12.183,51.519506,5.857977,0.00,0.00,0.00,-2.10,-2.90,-21.40,0,1,0,98,100,-7218,3655,12183,2941.50,8,GPS,1,0,0,0,0,0,0,1601381464911,4095,4092,4098,0,0,0,13,,,,,,,0,0,0,21.00,-29.00,-214.00,0.00,0.00,-215.00,6,51.00,0.00,3.32,0.00,0.00,0.00,0,,,100,100,0,1,0,0,0,0,0,,,,,0.0,0.0,0
51.519508,5.857982,5.10,5.60,0.00,0.33,5.20,5.20,3.80,0.33,8368,2020-09-29 12:11:05.015,2020-09-29 14:11:05.015,16,0,0,12.183,51.519506,5.857977,0.00,0.00,0.00,-2.10,-3.10,-21.40,0,1,0,98,100,-7218,3655,12183,2941.50,8,GPS,1,0,0,0,0,0,0,1601381465015,4095,4092,4098,0,0,0,13,,,,,,,0,0,0,21.00,-31.00,-214.00,0.00,0.00,-215.00,6,51.00,0.00,3.34,0.00,0.00,0.00,0,,,100,100,0,1,0,0,0,0,0,,,,,0.0,0.0,0
51.519508,5.857982,5.10,5.60,0.00,0.34,5.20,5.20,3.80,0.34,8489,2020-09-29 12:11:05.136,2020-09-29 14:11:05.136,16,0,0,12.183,51.519506,5.857977,0.00,0.00,0.00,-2.10,-3.20,-21.40,0,1,0,98,100,-7218,3655,12183,2941.50,8,GPS,1,0,0,0,0,0,0,1601381465136,4095,4092,4098,0,0,0,13,,,,,,,0,0,0,21.00,-32.00,-214.00,0.00,0.00,-215.00,6,51.00,0.00,3.36,0.00,0.00,0.00,0,,,100,100,0,1,0,0,0,0,0,,,,,0.0,0.0,0
51.519508,5.857982,5.10,5.60,0.00,0.34,5.20,5.20,3.80,0.34,8579,2020-09-29 12:11:05.227,2020-09-29 14:11:05.227,16,0,0,12.183,51.519506,5.857977,0.00,0.00,0.00,-2.10,-3.20,-21.50,0,1,0,98,100,-7218,3655,12183,2941.50,8,GPS,1,0,0,0,0,0,0,1601381465226,4095,4092,4098,0,0,0,13,,,,,,,0,0,0,21.00,-32.00,-215.00,0.00,0.00,-215.00,6,51.00,0.00,3.40,0.00,0.00,0.00,0,,,100,100,0,1,0,0,0,0,0,,,,,0.0,0.0,0
51.519508,5.857982,5.10,5.60,0.00,0.34,5.20,5.20,3.80,0.34,8678,2020-09-29 12:11:05.325,2020-09-29 14:11:05.325,16,0,0,12.289,51.519506,5.857977,0.00,0.00,0.00,-2.20,-3.00,-21.40,0,1,0,98,100,-7176,3651,12289,2941.50,8,GPS,1,0,0,0,0,0,0,1601381465325,4095,4092,4098,0,0,0,13,,,,,,,0,0,0,22.00,-30.00,-214.00,0.00,0.00,-215.00,6,51.00,0.00,3.43,0.00,0.00,0.00,0,,,100,100,0,1,0,0,0,0,0,,,,,0.0,0.0,0
51.519508,5.857982,5.10,5.60,0.00,0.35,5.20,5.20,3.80,0.35,8775,2020-09-29 12:11:05.423,2020-09-29 14:11:05.423,16,0,0,12.289,51.519506,5.857977,0.00,0.00,0.00,-2.20,-2.90,-21.50,0,1,0,98,100,-7176,3651,12289,2941.50,8,GPS,1,0,0,0,0,0,0,1601381465422,4095,4092,4098,0,0,0,13,,,,,,,0,0,0,22.00,-29.00,-215.00,0.00,0.00,-215.00,6,51.00,0.00,3.46,0.00,0.00,0.00,0,,,100,100,0,1,0,0,0,0,0,,,,,0.0,0.0,0
51.519508,5.857982,5.10,5.60,0.00,0.35,5.20,5.20,3.80,0.35,8873,2020-09-29 12:11:05.520,2020-09-29 14:11:05.520,16,0,0,12.289,51.519506,5.857977,0.00,0.00,0.00,-2.10,-2.90,-21.50,0,1,0,98,100,-7176,3651,12289,2941.50,8,GPS,1,0,0,0,0,0,0,1601381465520,4095,4092,4098,0,0,0,13,,,,,,,0,0,0,21.00,-29.00,-215.00,0.00,0.00,-215.00,6,51.00,0.00,3.47,0.00,0.00,0.00,0,,,100,100,0,1,0,0,0,0,0,,,,,0.0,0.0,0
51.519508,5.857982,5.10,5.60,0.00,0.35,5.20,5.20,3.80,0.35,8987,2020-09-29 12:11:05.634,2020-09-29 14:11:05.634,16,0,0,12.289,51.519506,5.857977,0.00,0.00,0.00,-2.00,-2.80,-21.50,0,1,0,98,100,-7176,3651,12289,2941.50,8,GPS,1,0,0,0,0,0,0,1601381465634,4095,4092,4098,0,0,0,13,,,,,,,0,0,0,20.00,-28.00,-215.00,0.00,0.00,-215.00,6,51.00,0.00,3.51,0.00,0.00,0.00,0,,,100,100,0,1,0,0,0,0,0,,,,,0.0,0.0,0
51.519508,5.857982,5.10,5.60,0.00,0.35,5.20,5.20,3.80,0.35,9089,2020-09-29 12:11:05.736,2020-09-29 14:11:05.736,16,0,0,12.289,51.519506,5.857977,0.00,0.00,0.00,-2.00,-2.70,-21.50,0,1,0,98,100,-7176,3651,12289,2941.50,8,GPS,1,0,0,0,0,0,0,1601381465736,4095,4092,4098,0,0,0,13,,,,,,,0,0,0,20.00,-27.00,-215.00,0.00,0.00,-215.00,6,51.00,0.00,3.53,0.00,0.00,0.00,0,,,100,100,0,1,0,0,0,0,0,,,,,0.0,0.0,0
51.519508,5.857982,5.10,5.60,0.00,0.36,5.20,5.20,3.80,0.36,9173,2020-09-29 12:11:05.820,2020-09-29 14:11:05.820,16,0,0,12.289,51.519506,5.857977,0.00,0.00,0.00,-2.00,-2.60,-21.50,0,1,0,98,100,-7176,3651,12289,2941.50,8,GPS,1,0,0,0,0,0,0,1601381465820,4095,4092,4098,0,0,0,13,,,,,,,0,0,0,20.00,-26.00,-215.00,0.00,0.00,-215.00,6,51.00,0.00,3.56,0.00,0.00,0.00,0,,,100,100,0,1,0,0,0,0,0,,,,,0.0,0.0,0
51.519508,5.857982,5.10,5.60,0.00,0.36,5.20,5.20,3.80,0.36,9286,2020-09-29 12:11:05.934,2020-09-29 14:11:05.934,16,0,0,12.289,51.519506,5.857977,0.00,0.00,0.00,-2.00,-2.60,-21.40,0,1,0,98,100,-7176,3651,12289,2941.50,8,GPS,1,0,0,0,0,0,0,1601381465933,4095,4092,4098,0,0,0,13,,,,,,,0,0,0,20.00,-26.00,-214.00,0.00,0.00,-215.00,6,51.00,0.00,3.58,0.00,0.00,0.00,0,,,100,100,0,1,0,0,0,0,0,,,,,0.0,0.0,0
51.519508,5.857982,5.10,5.60,0.00,0.36,5.20,5.20,3.80,0.36,9386,2020-09-29 12:11:06.033,2020-09-29 14:11:06.033,16,0,0,12.289,51.519506,5.857977,0.00,0.00,0.00,-2.10,-2.50,-21.40,0,1,0,98,100,-7176,3651,12289,2941.50,8,GPS,1,0,0,0,0,0,0,1601381466033,4095,4092,4098,0,0,0,13,,,,,,,0,0,0,21.00,-25.00,-214.00,0.00,0.00,-215.00,6,51.00,0.00,3.59,0.00,0.00,0.00,0,,,100,100,0,1,0,0,0,0,0,,,,,0.0,0.0,0
51.519508,5.857982,5.10,5.60,0.00,0.36,5.20,5.20,3.80,0.36,9470,2020-09-29 12:11:06.118,2020-09-29 14:11:06.118,16,0,0,12.289,51.519506,5.857977,0.00,0.00,0.00,-2.20,-2.60,-21.30,0,1,0,98,100,-7176,3651,12289,2941.50,8,GPS,1,0,0,0,0,0,0,1601381466117,4095,4092,4098,0,0,0,13,,,,,,,0,0,0,22.00,-26.00,-213.00,0.00,0.00,-215.00,6,51.00,0.00,3.59,0.00,0.00,0.00,0,,,100,100,0,1,0,0,0,0,0,,,,,0.0,0.0,0
51.519508,5.857982,5.10,5.60,0.00,0.36,5.20,5.20,3.80,0.36,9570,2020-09-29 12:11:06.217,2020-09-29 14:11:06.217,16,0,0,12.289,51.519506,5.857977,0.00,0.00,0.00,-2.20,-2.40,-21.30,0,1,0,98,100,-7176,3651,12289,2941.50,8,GPS,1,0,0,0,0,0,0,1601381466217,4095,4092,4098,0,0,0,13,,,,,,,0,0,0,22.00,-24.00,-213.00,0.00,0.00,-215.00,6,51.00,0.00,3.60,0.00,0.00,0.00,0,,,100,100,0,1,0,0,0,0,0,,,,,0.0,0.0,0
51.519508,5.857982,5.10,5.60,0.00,0.36,5.20,5.20,3.80,0.36,9685,2020-09-29 12:11:06.333,2020-09-29 14:11:06.333,16,0,0,12.289,51.519506,5.857977,0.00,0.00,0.00,-2.00,-2.20,-21.30,0,1,0,98,100,-7176,3651,12289,2941.50,8,GPS,1,0,0,0,0,0,0,1601381466332,4095,4092,4098,0,0,0,13,,,,,,,0,0,0,20.00,-22.00,-213.00,0.00,0.00,-215.00,6,51.00,0.00,3.60,0.00,0.00,0.00,0,,,100,100,0,1,0,0,0,0,0,,,,,0.0,0.0,0
51.519508,5.857982,5.10,5.60,0.00,0.36,5.20,5.20,3.80,0.36,9782,2020-09-29 12:11:06.429,2020-09-29 14:11:06.429,16,0,0,12.289,51.519506,5.857977,0.00,0.00,0.00,-1.90,-2.20,-21.30,0,1,0,98,100,-7176,3651,12289,2941.50,8,GPS,1,0,0,0,0,0,0,1601381466429,4095,4092,4098,0,0,0,13,,,,,,,0,0,0,19.00,-22.00,-213.00,0.00,0.00,-215.00,6,51.00,0.00,3.63,0.00,0.00,0.00,0,,,100,100,0,1,0,0,0,0,0,,,,,0.0,0.0,0
51.519508,5.857982,5.10,5.60,0.00,0.37,5.20,5.20,3.80,0.37,9884,2020-09-29 12:11:06.532,2020-09-29 14:11:06.532,16,0,0,12.289,51.519506,5.857977,0.00,0.00,0.00,-1.80,-2.20,-21.40,0,1,0,98,100,-7176,3651,12289,2941.50,8,GPS,1,0,0,0,0,0,0,1601381466531,4095,4092,4098,0,0,0,13,,,,,,,0,0,0,18.00,-22.00,-214.00,0.00,0.00,-215.00,6,51.00,0.00,3.66,0.00,0.00,0.00,0,,,100,100,0,1,0,0,0,0,0,,,,,0.0,0.0,0
51.519508,5.857982,5.10,5.60,0.00,0.37,5.20,5.20,3.80,0.37,9986,2020-09-29 12:11:06.634,2020-09-29 14:11:06.634,16,0,0,12.289,51.519506,5.857977,0.00,0.00,0.00,-1.80,-2.40,-21.50,0,1,0,98,100,-7176,3651,12289,2941.50,8,GPS,1,0,0,0,0,0,0,1601381466633,4095,4092,4098,0,0,0,13,,,,,,,0,0,0,18.00,-24.00,-215.00,0.00,0.00,-215.00,6,51.00,0.00,3.69,0.00,0.00,0.00,0,,,100,100,0,1,0,0,0,0,0,,,,,0.0,0.0,0
51.519508,5.857982,5.10,5.60,0.00,0.37,5.20,5.20,3.80,0.37,10070,2020-09-29 12:11:06.718,2020-09-29 14:11:06.718,16,0,0,12.289,51.519506,5.857977,0.00,0.00,0.00,-1.60,-2.60,-21.60,0,1,0,98,100,-7176,3651,12289,2941.50,8,GPS,1,0,0,0,0,0,0,1601381466717,4095,4092,4098,0,0,0,13,,,,,,,0,0,0,16.00,-26.00,-216.00,0.00,0.00,-215.00,6,51.00,0.00,3.72,0.00,0.00,0.00,0,,,100,100,0,1,0,0,0,0,0,,,,,0.0,0.0,0
51.519508,5.857982,5.10,5.60,0.00,0.37,5.20,5.20,3.80,0.37,10187,2020-09-29 12:11:06.834,2020-09-29 14:11:06.835,16,0,0,12.289,51.519506,5.857977,0.00,0.00,0.00,-1.70,-2.70,-21.70,0,1,0,98,100,-7176,3651,12289,2941.50,8,GPS,1,0,0,0,0,0,0,1601381466834,4095,4092,4098,0,0,0,13,,,,,,,0,0,0,17.00,-27.00,-217.00,0.00,0.00,-215.00,6,51.00,0.00,3.74,0.00,0.00,0.00,0,,,100,100,0,1,0,0,0,0,0,,,,,0.0,0.0,0
51.519508,5.857982,5.10,5.60,0.00,0.37,5.20,5.20,3.80,0.37,10291,2020-09-29 12:11:06.939,2020-09-29 14:11:06.939,16,0,0,12.289,51.519506,5.857977,0.00,0.00,0.00,-1.90,-2.50,-21.70,0,1,0,98,100,-7176,3651,12289,2941.50,8,GPS,1,0,0,0,0,0,0,1601381466938,4095,4092,4098,0,0,0,13,,,,,,,0,0,0,19.00,-25.00,-217.00,0.00,0.00,-215.00,6,51.00,0.00,3.74,0.00,0.00,0.00,0,,,100,100,0,1,0,0,0,0,0,,,,,0.0,0.0,0
51.519508,5.857982,5.10,5.60,0.00,0.38,5.20,5.20,3.80,0.38,10369,2020-09-29 12:11:07.017,2020-09-29 14:11:07.017,16,0,0,12.289,51.519506,5.857977,0.00,0.00,0.00,-2.00,-2.20,-21.60,0,1,0,98,100,-7176,3651,12289,2941.50,8,GPS,1,0,0,0,0,0,0,1601381467016,4095,4092,4098,0,0,0,13,,,,,,,0,0,0,20.00,-22.00,-216.00,0.00,0.00,-215.00,6,51.00,0.00,3.77,0.00,0.00,0.00,0,,,100,100,0,1,0,0,0,0,0,,,,,0.0,0.0,0
51.519508,5.857982,5.10,5.60,0.00,0.38,5.20,5.20,3.80,0.38,10464,2020-09-29 12:11:07.111,2020-09-29 14:11:07.111,16,0,0,12.289,51.519506,5.857977,0.00,0.00,0.00,-2.20,-2.00,-21.60,0,1,0,98,100,-7176,3651,12289,2941.50,8,GPS,1,0,0,0,0,0,0,1601381467111,4095,4092,4098,0,0,0,13,,,,,,,0,0,0,22.00,-20.00,-216.00,0.00,0.00,-215.00,6,51.00,0.00,3.79,0.00,0.00,0.00,0,,,100,100,0,1,0,0,0,0,0,,,,,0.0,0.0,0
51.519508,5.857982,5.10,5.60,0.00,0.38,5.20,5.20,3.80,0.38,10577,2020-09-29 12:11:07.225,2020-09-29 14:11:07.225,16,0,0,12.437,51.519506,5.857977,0.00,0.00,0.00,-2.40,-1.80,-21.50,0,1,0,98,100,-7082,3647,12437,2941.50,8,GPS,1,0,0,0,0,0,0,1601381467224,4095,4092,4098,0,0,0,13,,,,,,,0,0,0,24.00,-18.00,-215.00,0.00,0.00,-215.00,6,51.00,0.00,3.79,0.00,0.00,0.00,0,,,100,100,0,1,0,0,0,0,0,,,,,0.0,0.0,0
51.519509,5.857982,5.10,5.60,0.00,0.38,5.20,5.20,3.80,0.38,10670,2020-09-29 12:11:07.318,2020-09-29 14:11:07.318,16,0,0,12.437,51.519506,5.857977,0.00,0.00,0.00,-2.50,-2.00,-21.50,0,1,0,98,100,-7082,3647,12437,2941.50,8,GPS,1,0,0,0,0,0,0,1601381467317,4095,4092,4098,0,0,0,13,,,,,,,0,0,0,25.00,-20.00,-215.00,0.00,0.00,-215.00,6,51.00,0.00,3.80,0.00,0.00,0.00,0,,,100,100,0,1,0,0,0,0,0,,,,,0.0,0.0,0
51.519509,5.857982,5.10,5.60,0.00,0.38,5.20,5.20,3.80,0.38,10784,2020-09-29 12:11:07.431,2020-09-29 14:11:07.431,16,0,0,12.437,51.519506,5.857977,0.00,0.00,0.00,-2.30,-2.10,-21.60,0,1,0,98,100,-7082,3647,12437,2941.50,8,GPS,1,0,0,0,0,0,0,1601381467431,4095,4092,4098,0,0,0,13,,,,,,,0,0,0,23.00,-21.00,-216.00,0.00,0.00,-215.00,6,51.00,0.00,3.84,0.00,0.00,0.00,0,,,100,100,0,1,0,0,0,0,0,,,,,0.0,0.0,0
51.519509,5.857982,5.10,5.60,0.00,0.39,5.20,5.20,3.80,0.39,10886,2020-09-29 12:11:07.534,2020-09-29 14:11:07.534,16,0,0,12.437,51.519506,5.857977,0.00,0.00,0.00,-2.00,-2.40,-21.70,0,1,0,98,100,-7082,3647,12437,2941.50,8,GPS,1,0,0,0,0,0,0,1601381467533,4095,4092,4098,0,0,0,13,,,,,,,0,0,0,20.00,-24.00,-217.00,0.00,0.00,-215.00,6,51.00,0.00,3.88,0.00,0.00,0.00,0,,,100,100,0,1,0,0,0,0,0,,,,,0.0,0.0,0
51.519509,5.857982,5.10,5.60,0.00,0.39,5.20,5.20,3.80,0.39,11004,2020-09-29 12:11:07.652,2020-09-29 14:11:07.652,16,0,0,12.437,51.519506,5.857977,0.00,0.00,0.00,-1.80,-2.50,-21.60,0,1,0,98,100,-7082,3647,12437,2941.50,8,GPS,1,0,0,0,0,0,0,1601381467651,4095,4092,4098,0,0,0,13,,,,,,,0,0,0,18.00,-25.00,-216.00,0.00,0.00,-215.00,6,51.00,0.00,3.94,0.00,0.00,0.00,0,,,100,100,0,1,0,0,0,0,0,,,,,0.0,0.0,0
51.519509,5.857982,5.10,5.60,0.00,0.40,5.20,5.20,3.80,0.40,11070,2020-09-29 12:11:07.717,2020-09-29 14:11:07.718,16,0,0,12.437,51.519506,5.857977,0.00,0.00,0.00,-1.80,-2.50,-21.50,0,1,0,98,100,-7082,3647,12437,2941.50,8,GPS,1,0,0,0,0,0,0,1601381467717,4095,4092,4098,0,0,0,13,,,,,,,0,0,0,18.00,-25.00,-215.00,0.00,0.00,-215.00,6,51.00,0.00,3.99,0.00,0.00,0.00,0,,,100,100,0,1,0,0,0,0,0,,,,,0.0,0.0,0
51.519509,5.857982,5.10,5.60,0.00,0.41,5.20,5.20,3.80,0.41,11171,2020-09-29 12:11:07.818,2020-09-29 14:11:07.818,16,0,0,12.437,51.519506,5.857977,0.00,0.00,0.00,-1.90,-2.40,-21.50,0,1,0,98,100,-7082,3647,12437,2941.50,8,GPS,1,0,0,0,0,0,0,1601381467818,4095,4092,4098,0,0,0,13,,,,,,,0,0,0,19.00,-24.00,-215.00,0.00,0.00,-215.00,6,51.00,0.00,4.07,0.00,0.00,0.00,0,,,100,100,0,1,0,0,0,0,0,,,,,0.0,0.0,0
51.519509,5.857982,5.10,5.60,0.00,0.41,5.20,5.20,3.80,0.41,11271,2020-09-29 12:11:07.918,2020-09-29 14:11:07.918,16,0,0,12.437,51.519506,5.857977,0.00,0.00,0.00,-1.80,-2.30,-21.50,0,1,0,98,100,-7082,3647,12437,2941.50,8,GPS,1,0,0,0,0,0,0,1601381467918,4095,4092,4098,0,0,0,13,,,,,,,0,0,0,18.00,-23.00,-215.00,0.00,0.00,-215.00,6,51.00,0.00,4.15,0.00,0.00,0.00,0,,,100,100,0,1,0,0,0,0,0,,,,,0.0,0.0,0
51.519509,5.857982,5.10,5.60,0.00,0.42,5.20,5.20,3.80,0.42,11370,2020-09-29 12:11:08.018,2020-09-29 14:11:08.018,16,0,0,12.437,51.519506,5.857977,0.00,0.00,0.00,-1.80,-2.50,-21.50,0,1,0,98,100,-7082,3647,12437,2941.50,8,GPS,1,0,0,0,0,0,0,1601381468017,4095,4092,4098,0,0,0,13,,,,,,,0,0,0,18.00,-25.00,-215.00,0.00,0.00,-215.00,6,51.00,0.00,4.20,0.00,0.00,0.00,0,,,100,100,0,1,0,0,0,0,0,,,,,0.0,0.0,0
51.519509,5.857982,5.10,5.50,0.00,0.42,5.20,5.20,3.80,0.42,11488,2020-09-29 12:11:08.136,2020-09-29 14:11:08.136,16,0,0,12.437,51.519506,5.857977,0.00,0.00,0.00,-2.00,-2.50,-21.50,0,1,0,98,100,-7082,3647,12437,2941.50,8,GPS,1,0,0,0,0,0,0,1601381468135,4095,4092,4098,0,0,0,13,,,,,,,0,0,0,20.00,-25.00,-215.00,0.00,0.00,-215.00,6,51.00,0.00,4.24,0.00,0.00,0.00,0,,,100,100,0,1,0,0,0,0,0,,,,,0.0,0.0,0
51.519509,5.857982,5.10,5.50,0.00,0.43,5.20,5.20,3.80,0.43,11603,2020-09-29 12:11:08.251,2020-09-29 14:11:08.251,16,0,0,12.437,51.519506,5.857977,0.00,0.00,0.00,-2.10,-2.70,-21.50,0,1,0,98,100,-7082,3647,12437,2941.50,8,GPS,1,0,0,0,0,0,0,1601381468250,4095,4092,4098,0,0,0,13,,,,,,,0,0,0,21.00,-27.00,-215.00,0.00,0.00,-215.00,6,51.00,0.00,4.29,0.00,0.00,0.00,0,,,100,100,0,1,0,0,0,0,0,,,,,0.0,0.0,0
51.519509,5.857982,5.10,5.50,0.00,0.43,5.20,5.20,3.80,0.43,11687,2020-09-29 12:11:08.334,2020-09-29 14:11:08.334,16,0,0,12.437,51.519506,5.857977,0.00,0.00,0.00,-2.30,-2.60,-21.50,0,1,0,98,100,-7082,3647,12437,2941.50,8,GPS,1,0,0,0,0,0,0,1601381468334,4095,4092,4098,0,0,0,13,,,,,,,0,0,0,23.00,-26.00,-215.00,0.00,0.00,-215.00,6,51.00,0.00,4.34,0.00,0.00,0.00,0,,,100,100,0,1,0,0,0,0,0,,,,,0.0,0.0,0
51.519509,5.857982,5.10,5.50,0.00,0.44,5.20,5.20,3.80,0.44,11803,2020-09-29 12:11:08.451,2020-09-29 14:11:08.451,16,0,0,12.437,51.519506,5.857977,0.00,0.00,0.00,-2.20,-2.10,-21.60,0,1,0,98,100,-7082,3647,12437,2941.50,8,GPS,1,0,0,0,0,0,0,1601381468450,4095,4092,4098,0,0,0,13,,,,,,,0,0,0,22.00,-21.00,-216.00,0.00,0.00,-215.00,6,51.00,0.00,4.38,0.00,0.00,0.00,0,,,100,100,0,1,0,0,0,0,0,,,,,0.0,0.0,0
51.519509,5.857982,5.10,5.50,0.00,0.44,5.20,5.20,3.80,0.44,11884,2020-09-29 12:11:08.531,2020-09-29 14:11:08.531,16,0,0,12.437,51.519506,5.857977,0.00,0.00,0.00,-2.40,-2.00,-21.60,0,1,0,98,100,-7082,3647,12437,2941.50,8,GPS,1,0,0,0,0,0,0,1601381468531,4095,4092,4098,0,0,0,13,,,,,,,0,0,0,24.00,-20.00,-216.00,0.00,0.00,-215.00,6,51.00,0.00,4.41,0.00,0.00,0.00,0,,,100,100,0,1,0,0,0,0,0,,,,,0.0,0.0,0
51.519509,5.857982,5.10,5.50,0.00,0.44,5.20,5.20,3.80,0.44,11967,2020-09-29 12:11:08.615,2020-09-29 14:11:08.615,16,0,0,12.437,51.519506,5.857977,0.00,0.00,0.00,-2.40,-1.90,-21.60,0,1,0,98,100,-7082,3647,12437,2941.50,8,GPS,1,0,0,0,0,0,0,1601381468614,4095,4092,4098,0,0,0,13,,,,,,,0,0,0,24.00,-19.00,-216.00,0.00,0.00,-215.00,6,51.00,0.00,4.44,0.00,0.00,0.00,0,,,100,100,0,1,0,0,0,0,0,,,,,0.0,0.0,0
51.519509,5.857982,5.10,5.50,0.00,0.45,5.20,5.20,3.80,0.45,12087,2020-09-29 12:11:08.734,2020-09-29 14:11:08.734,16,0,0,12.437,51.519506,5.857977,0.00,0.00,0.00,-2.70,-2.00,-21.50,0,1,0,98,100,-7082,3647,12437,2941.50,8,GPS,1,0,0,0,0,0,0,1601381468734,4095,4092,4098,0,0,0,13,,,,,,,0,0,0,27.00,-20.00,-215.00,0.00,0.00,-215.00,6,51.00,0.00,4.47,0.00,0.00,0.00,0,,,100,100,0,1,0,0,0,0,0,,,,,0.0,0.0,0
51.519509,5.857982,5.10,5.50,0.00,0.46,5.20,5.20,3.80,0.46,12193,2020-09-29 12:11:08.840,2020-09-29 14:11:08.841,16,0,0,12.437,51.519506,5.857977,0.00,0.00,0.00,-2.80,-2.50,-21.50,0,1,0,98,100,-7082,3647,12437,2941.50,8,GPS,1,0,0,0,0,0,0,1601381468840,4095,4092,4098,0,0,0,13,,,,,,,0,0,0,28.00,-25.00,-215.00,0.00,0.00,-215.00,6,51.00,0.00,4.55,0.00,0.00,0.00,0,,,100,100,0,1,0,0,0,0,0,,,,,0.0,0.0,0
51.519510,5.857982,5.10,5.50,0.00,0.46,5.20,5.20,3.80,0.46,12270,2020-09-29 12:11:08.917,2020-09-29 14:11:08.917,16,0,0,12.437,51.519506,5.857977,0.00,0.00,0.00,-2.40,-2.50,-21.40,0,1,0,98,100,-7082,3647,12437,2941.50,8,GPS,1,0,0,0,0,0,0,1601381468917,4095,4092,4098,0,0,0,13,,,,,,,0,0,0,24.00,-25.00,-214.00,0.00,0.00,-215.00,6,51.00,0.00,4.64,0.00,0.00,0.00,0,,,100,100,0,1,0,0,0,0,0,,,,,0.0,0.0,0
51.519510,5.857982,5.10,5.50,0.00,0.47,5.20,5.20,3.80,0.47,12371,2020-09-29 12:11:09.019,2020-09-29 14:11:09.019,16,0,0,12.437,51.519506,5.857977,0.00,0.00,0.00,-2.10,-2.20,-21.40,0,1,0,98,100,-7082,3647,12437,2941.50,8,GPS,1,0,0,0,0,0,0,1601381469018,4095,4092,4098,0,0,0,13,,,,,,,0,0,0,21.00,-22.00,-214.00,0.00,0.00,-215.00,6,51.00,0.00,4.75,0.00,0.00,0.00,0,,,100,100,0,1,0,0,0,0,0,,,,,0.0,0.0,0
51.519510,5.857982,5.10,5.50,0.00,0.49,5.20,5.20,3.80,0.49,12488,2020-09-29 12:11:09.136,2020-09-29 14:11:09.136,16,0,0,12.437,51.519506,5.857977,0.00,0.00,0.00,-2.10,-2.50,-21.40,0,1,0,98,100,-7082,3647,12437,2941.50,8,GPS,1,0,0,0,0,0,0,1601381469135,4095,4092,4098,0,0,0,13,,,,,,,0,0,0,21.00,-25.00,-214.00,0.00,0.00,-215.00,6,51.00,0.00,4.86,0.00,0.00,0.00,0,,,100,100,0,1,0,0,0,0,0,,,,,0.0,0.0,0
51.519510,5.857982,5.10,5.50,0.00,0.50,5.20,5.20,3.80,0.50,12570,2020-09-29 12:11:09.217,2020-09-29 14:11:09.217,16,0,0,12.437,51.519506,5.857977,0.00,0.00,0.00,-2.20,-3.00,-21.40,0,1,0,98,100,-7082,3647,12437,2941.50,8,GPS,1,0,0,0,0,0,0,1601381469217,4095,4092,4098,0,0,0,13,,,,,,,0,0,0,22.00,-30.00,-214.00,0.00,0.00,-215.00,6,51.00,0.00,5.01,0.00,0.00,0.00,0,,,100,100,0,1,0,0,0,0,0,,,,,0.0,0.0,0
51.519510,5.857982,5.10,5.50,0.00,0.51,5.20,5.20,3.80,0.51,12689,2020-09-29 12:11:09.336,2020-09-29 14:11:09.336,16,0,0,12.247,51.519506,5.857977,0.00,0.00,0.00,-2.00,-3.10,-21.50,0,1,0,98,100,-6900,3641,12247,2941.50,8,GPS,1,0,0,0,0,0,0,1601381469336,4095,4092,4098,0,0,0,13,,,,,,,0,0,0,20.00,-31.00,-215.00,0.00,0.00,-215.00,6,51.00,0.00,5.14,0.00,0.00,0.00,0,,,100,100,0,1,0,0,0,0,0,,,,,0.0,0.0,0
51.519510,5.857982,5.10,5.50,0.00,0.53,5.20,5.20,3.80,0.53,12789,2020-09-29 12:11:09.437,2020-09-29 14:11:09.437,16,0,0,12.247,51.519506,5.857977,0.00,0.00,0.00,-2.30,-3.50,-21.30,0,1,0,98,100,-6900,3641,12247,2941.50,8,GPS,1,0,0,0,0,0,0,1601381469436,4095,4092,4098,0,0,0,13,,,,,,,0,0,0,23.00,-35.00,-213.00,0.00,0.00,-215.00,6,51.00,0.00,5.29,0.00,0.00,0.00,0,,,100,100,0,1,0,0,0,0,0,,,,,0.0,0.0,0
51.519510,5.857982,5.10,5.50,0.00,0.54,5.20,5.20,3.80,0.54,12872,2020-09-29 12:11:09.520,2020-09-29 14:11:09.520,16,0,0,12.247,51.519506,5.857977,0.00,0.00,0.00,-2.20,-3.80,-21.30,0,1,0,98,100,-6900,3641,12247,2941.50,8,GPS,1,0,0,0,0,0,0,1601381469519,4095,4092,4098,0,0,0,13,,,,,,,0,0,0,22.00,-38.00,-213.00,0.00,0.00,-215.00,6,51.00,0.00,5.43,0.00,0.00,0.00,0,,,100,100,0,1,0,0,0,0,0,,,,,0.0,0.0,0
51.519510,5.857982,5.10,5.50,0.00,0.56,5.20,5.20,3.80,0.56,12987,2020-09-29 12:11:09.635,2020-09-29 14:11:09.635,16,0,0,12.247,51.519506,5.857977,0.00,0.00,0.00,-2.10,-4.10,-21.30,0,1,0,98,100,-6900,3641,12247,2941.50,8,GPS,1,0,0,0,0,0,0,1601381469634,4095,4092,4098,0,0,0,13,,,,,,,0,0,0,21.00,-41.00,-213.00,0.00,0.00,-215.00,6,51.00,0.00,5.62,0.00,0.00,0.00,0,,,100,100,0,1,0,0,0,0,0,,,,,0.0,0.0,0
51.519510,5.857983,5.10,5.50,0.00,0.58,5.20,5.20,3.80,0.58,13074,2020-09-29 12:11:09.722,2020-09-29 14:11:09.722,16,0,0,12.247,51.519506,5.857977,0.00,0.00,0.00,-1.80,-4.30,-21.40,0,1,0,98,100,-6900,3641,12247,2941.50,8,GPS,1,0,0,0,0,0,0,1601381469721,4095,4092,4098,0,0,0,13,,,,,,,0,0,0,18.00,-43.00,-214.00,0.00,0.00,-215.00,6,51.00,0.00,5.78,0.00,0.00,0.00,0,,,100,100,0,1,0,0,0,0,0,,,,,0.0,0.0,0
51.519511,5.857983,5.10,5.50,0.00,0.59,5.20,5.20,3.80,0.59,13166,2020-09-29 12:11:09.814,2020-09-29 14:11:09.814,16,0,0,12.247,51.519506,5.857977,0.00,0.00,0.00,-1.40,-4.20,-21.40,0,1,0,98,100,-6900,3641,12247,2941.50,8,GPS,1,0,0,0,0,0,0,1601381469813,4095,4092,4098,0,0,0,13,,,,,,,0,0,0,14.00,-42.00,-214.00,0.00,0.00,-215.00,6,51.00,0.00,5.94,0.00,0.00,0.00,0,,,100,100,0,1,0,0,0,0,0,,,,,0.0,0.0,0
51.519511,5.857983,5.10,5.50,0.00,0.61,5.20,5.20,3.80,0.61,13274,2020-09-29 12:11:09.921,2020-09-29 14:11:09.921,16,0,0,12.247,51.519506,5.857977,0.00,0.00,0.00,-1.20,-4.00,-21.30,0,1,0,98,100,-6900,3641,12247,2941.50,8,GPS,1,0,0,0,0,0,0,1601381469921,4095,4092,4098,0,0,0,13,,,,,,,0,0,0,12.00,-40.00,-213.00,0.00,0.00,-215.00,6,51.00,0.00,6.06,0.00,0.00,0.00,0,,,100,100,0,1,0,0,0,0,0,,,,,0.0,0.0,0
51.519511,5.857983,5.10,5.50,0.00,0.62,5.20,5.20,3.80,0.62,13371,2020-09-29 12:11:10.019,2020-09-29 14:11:10.019,16,0,0,12.247,51.519506,5.857977,0.00,0.00,0.00,-1.50,-3.90,-21.30,0,1,0,98,100,-6900,3641,12247,2941.50,8,GPS,1,0,0,0,0,0,0,1601381470018,4095,4092,4098,0,0,0,13,,,,,,,0,0,0,15.00,-39.00,-213.00,0.00,0.00,-215.00,6,51.00,0.00,6.16,0.00,0.00,0.00,0,,,100,100,0,1,0,0,0,0,0,,,,,0.0,0.0,0
51.519511,5.857983,5.10,5.50,0.00,0.62,5.20,5.20,3.80,0.62,13474,2020-09-29 12:11:10.121,2020-09-29 14:11:10.121,16,0,0,12.247,51.519506,5.857977,0.00,0.00,0.00,-1.30,-3.60,-21.20,0,1,0,98,100,-6900,3641,12247,2941.50,8,GPS,1,0,0,0,0,0,0,1601381470121,4095,4092,4098,0,0,0,13,,,,,,,0,0,0,13.00,-36.00,-212.00,0.00,0.00,-215.00,6,51.00,0.00,6.25,0.00,0.00,0.00,0,,,100,100,0,1,0,0,0,0,0,,,,,0.0,0.0,0
51.519511,5.857983,5.10,5.50,0.00,0.63,5.20,5.20,3.80,0.63,13566,2020-09-29 12:11:10.214,2020-09-29 14:11:10.214,16,0,0,12.247,51.519506,5.857977,0.00,0.00,0.00,-1.10,-3.40,-21.20,0,1,0,98,100,-6900,3641,12247,2941.50,8,GPS,1,0,0,0,0,0,0,1601381470213,4095,4092,4098,0,0,0,13,,,,,,,0,0,0,11.00,-34.00,-212.00,0.00,0.00,-215.00,6,51.00,0.00,6.30,0.00,0.00,0.00,0,,,100,100,0,1,0,0,0,0,0,,,,,0.0,0.0,0
51.519511,5.857982,5.10,5.50,0.00,0.63,5.20,5.20,3.80,0.63,13672,2020-09-29 12:11:10.319,2020-09-29 14:11:10.320,16,0,0,12.247,51.519506,5.857977,0.00,0.00,0.00,-1.10,-3.40,-21.20,0,1,0,98,100,-6900,3641,12247,2941.50,8,GPS,1,0,0,0,0,0,0,1601381470319,4095,4092,4098,0,0,0,13,,,,,,,0,0,0,11.00,-34.00,-212.00,0.00,0.00,-215.00,6,51.00,0.00,6.34,0.00,0.00,0.00,0,,,100,100,0,1,0,0,0,0,0,,,,,0.0,0.0,0
51.519511,5.857982,5.10,5.50,0.00,0.64,5.20,5.20,3.80,0.64,13790,2020-09-29 12:11:10.438,2020-09-29 14:11:10.438,16,0,0,12.247,51.519506,5.857977,0.00,0.00,0.00,-1.20,-3.10,-21.20,0,1,0,98,100,-6900,3641,12247,2941.50,8,GPS,1,0,0,0,0,0,0,1601381470437,4095,4092,4098,0,0,0,13,,,,,,,0,0,0,12.00,-31.00,-212.00,0.00,0.00,-215.00,6,51.00,0.00,6.36,0.00,0.00,0.00,0,,,100,100,0,1,0,0,0,0,0,,,,,0.0,0.0,0
51.519511,5.857982,5.10,5.50,0.00,0.64,5.20,5.20,3.80,0.64,13871,2020-09-29 12:11:10.518,2020-09-29 14:11:10.518,16,0,0,12.247,51.519506,5.857977,0.00,0.00,0.00,-1.00,-2.90,-21.20,0,1,0,98,100,-6900,3641,12247,2941.50,8,GPS,1,0,0,0,0,0,0,1601381470518,4095,4092,4098,0,0,0,13,,,,,,,0,0,0,10.00,-29.00,-212.00,0.00,0.00,-215.00,6,51.00,0.00,6.38,0.00,0.00,0.00,0,,,100,100,0,1,0,0,0,0,0,,,,,0.0,0.0,0
51.519511,5.857982,5.10,5.50,0.00,0.64,5.20,5.20,3.80,0.64,14006,2020-09-29 12:11:10.653,2020-09-29 14:11:10.653,16,0,0,12.247,51.519506,5.857977,0.00,0.00,0.00,-1.00,-2.80,-21.30,0,1,0,98,100,-6900,3641,12247,2941.50,8,GPS,1,0,0,0,0,0,0,1601381470653,4095,4092,4098,0,0,0,13,,,,,,,0,0,0,10.00,-28.00,-213.00,0.00,0.00,-215.00,6,51.00,0.00,6.39,0.00,0.00,0.00,0,,,100,100,0,1,0,0,0,0,0,,,,,0.0,0.0,0
51.519511,5.857982,5.10,5.50,0.00,0.64,5.20,5.20,3.80,0.64,14073,2020-09-29 12:11:10.721,2020-09-29 14:11:10.721,16,0,0,12.247,51.519506,5.857977,0.00,0.00,0.00,-1.00,-3.10,-21.30,0,1,0,98,100,-6900,3641,12247,2941.50,8,GPS,1,0,0,0,0,0,0,1601381470720,4095,4092,4098,0,0,0,13,,,,,,,0,0,0,10.00,-31.00,-213.00,0.00,0.00,-215.00,6,51.00,0.00,6.40,0.00,0.00,0.00,0,,,100,100,0,1,0,0,0,0,0,,,,,0.0,0.0,0
51.519511,5.857982,5.10,5.50,0.00,0.64,5.20,5.20,3.80,0.64,14189,2020-09-29 12:11:10.836,2020-09-29 14:11:10.836,16,0,0,12.247,51.519506,5.857977,0.00,0.00,0.00,-0.90,-2.90,-21.30,0,1,0,98,100,-6900,3641,12247,2941.50,8,GPS,1,0,0,0,0,0,0,1601381470836,4095,4092,4098,0,0,0,13,,,,,,,0,0,0,9.00,-29.00,-213.00,0.00,0.00,-215.00,6,51.00,0.00,6.44,0.00,0.00,0.00,0,,,100,100,0,1,0,0,0,0,0,,,,,0.0,0.0,0
51.519511,5.857982,5.10,5.50,0.00,0.65,5.20,5.20,3.80,0.65,14272,2020-09-29 12:11:10.919,2020-09-29 14:11:10.919,16,0,0,12.247,51.519506,5.857977,0.00,0.00,0.00,-1.10,-3.00,-21.30,0,1,0,98,100,-6900,3641,12247,2941.50,8,GPS,1,0,0,0,0,0,0,1601381470919,4095,4092,4098,0,0,0,13,,,,,,,0,0,0,11.00,-30.00,-213.00,0.00,0.00,-215.00,6,51.00,0.00,6.47,0.00,0.00,0.00,0,,,100,100,0,1,0,0,0,0,0,,,,,0.0,0.0,0
51.519511,5.857982,5.20,5.60,0.00,0.65,5.20,5.20,3.80,0.65,14371,2020-09-29 12:11:11.018,2020-09-29 14:11:11.018,16,0,0,12.247,51.519506,5.857977,0.00,0.00,0.00,-1.10,-2.90,-21.40,0,1,0,98,100,-6900,3641,12247,2941.50,8,GPS,1,0,0,0,0,0,0,1601381471018,4095,4092,4098,0,0,0,13,,,,,,,0,0,0,11.00,-29.00,-214.00,0.00,0.00,-215.00,6,52.00,0.00,6.48,0.00,0.00,0.00,0,,,100,100,0,1,0,0,0,0,0,,,,,0.0,0.0,0
51.519511,5.857982,5.20,5.60,0.00,0.65,5.20,5.20,3.80,0.65,14471,2020-09-29 12:11:11.119,2020-09-29 14:11:11.119,16,0,0,12.247,51.519506,5.857977,0.00,0.00,0.00,-1.20,-3.10,-21.30,0,1,0,98,100,-6900,3641,12247,2941.50,8,GPS,1,0,0,0,-2,0,0,1601381471118,4095,4092,4098,0,0,0,13,,,,,,,0,0,0,12.00,-31.00,-213.00,0.00,0.00,-215.00,6,52.00,0.00,6.50,0.00,0.00,0.00,0,,,100,100,0,1,0,0,0,0,0,,,,,0.0,0.0,0
